$GPGGA,182217.921,5903.895,N,00555.586,E,1,12,1.0,0.0,M,0.0,M,,*6E
$GPGSA,A,3,01,02,03,04,05,06,07,08,09,10,11,12,1.0,1.0,1.0*30
$GPRMC,182217.921,A,5903.895,N,00555.586,E,019.4,127.8,121217,000.0,W*7C
$GPGGA,182218.921,5903.891,N,00555.592,E,1,12,1.0,0.0,M,0.0,M,,*60
$GPGSA,A,3,01,02,03,04,05,06,07,08,09,10,11,12,1.0,1.0,1.0*30
$GPRMC,182218.921,A,5903.891,N,00555.592,E,019.4,127.8,121217,000.0,W*72
$GPGGA,182219.921,5903.886,N,00555.598,E,1,12,1.0,0.0,M,0.0,M,,*6D
$GPGSA,A,3,01,02,03,04,05,06,07,08,09,10,11,12,1.0,1.0,1.0*30
$GPRMC,182219.921,A,5903.886,N,00555.598,E,019.4,127.8,121217,000.0,W*7F
$GPGGA,182220.921,5903.882,N,00555.604,E,1,12,1.0,0.0,M,0.0,M,,*65
$GPGSA,A,3,01,02,03,04,05,06,07,08,09,10,11,12,1.0,1.0,1.0*30
$GPRMC,182220.921,A,5903.882,N,00555.604,E,019.4,127.8,121217,000.0,W*77
$GPGGA,182221.921,5903.877,N,00555.610,E,1,12,1.0,0.0,M,0.0,M,,*6B
$GPGSA,A,3,01,02,03,04,05,06,07,08,09,10,11,12,1.0,1.0,1.0*30
$GPRMC,182221.921,A,5903.877,N,00555.610,E,019.4,127.8,121217,000.0,W*79
$GPGGA,182222.921,5903.873,N,00555.615,E,1,12,1.0,0.0,M,0.0,M,,*69
$GPGSA,A,3,01,02,03,04,05,06,07,08,09,10,11,12,1.0,1.0,1.0*30
$GPRMC,182222.921,A,5903.873,N,00555.615,E,019.4,127.8,121217,000.0,W*7B
$GPGGA,182223.921,5903.868,N,00555.621,E,1,12,1.0,0.0,M,0.0,M,,*65
$GPGSA,A,3,01,02,03,04,05,06,07,08,09,10,11,12,1.0,1.0,1.0*30
$GPRMC,182223.921,A,5903.868,N,00555.621,E,019.4,127.8,121217,000.0,W*77
$GPGGA,182224.921,5903.864,N,00555.627,E,1,12,1.0,0.0,M,0.0,M,,*68
$GPGSA,A,3,01,02,03,04,05,06,07,08,09,10,11,12,1.0,1.0,1.0*30
$GPRMC,182224.921,A,5903.864,N,00555.627,E,019.4,127.8,121217,000.0,W*7A
$GPGGA,182225.921,5903.859,N,00555.633,E,1,12,1.0,0.0,M,0.0,M,,*62
$GPGSA,A,3,01,02,03,04,05,06,07,08,09,10,11,12,1.0,1.0,1.0*30
$GPRMC,182225.921,A,5903.859,N,00555.633,E,019.4,127.8,121217,000.0,W*70
$GPGGA,182226.921,5903.855,N,00555.639,E,1,12,1.0,0.0,M,0.0,M,,*67
$GPGSA,A,3,01,02,03,04,05,06,07,08,09,10,11,12,1.0,1.0,1.0*30
$GPRMC,182226.921,A,5903.855,N,00555.639,E,019.4,127.8,121217,000.0,W*75
$GPGGA,182227.921,5903.850,N,00555.644,E,1,12,1.0,0.0,M,0.0,M,,*69
$GPGSA,A,3,01,02,03,04,05,06,07,08,09,10,11,12,1.0,1.0,1.0*30
$GPRMC,182227.921,A,5903.850,N,00555.644,E,019.4,127.8,121217,000.0,W*7B
$GPGGA,182228.921,5903.846,N,00555.650,E,1,12,1.0,0.0,M,0.0,M,,*64
$GPGSA,A,3,01,02,03,04,05,06,07,08,09,10,11,12,1.0,1.0,1.0*30
$GPRMC,182228.921,A,5903.846,N,00555.650,E,019.4,127.8,121217,000.0,W*76
$GPGGA,182229.921,5903.841,N,00555.656,E,1,12,1.0,0.0,M,0.0,M,,*64
$GPGSA,A,3,01,02,03,04,05,06,07,08,09,10,11,12,1.0,1.0,1.0*30
$GPRMC,182229.921,A,5903.841,N,00555.656,E,019.4,127.8,121217,000.0,W*76
$GPGGA,182230.921,5903.837,N,00555.662,E,1,12,1.0,0.0,M,0.0,M,,*6A
$GPGSA,A,3,01,02,03,04,05,06,07,08,09,10,11,12,1.0,1.0,1.0*30
$GPRMC,182230.921,A,5903.837,N,00555.662,E,019.4,127.8,121217,000.0,W*78
$GPGGA,182231.921,5903.832,N,00555.668,E,1,12,1.0,0.0,M,0.0,M,,*64
$GPGSA,A,3,01,02,03,04,05,06,07,08,09,10,11,12,1.0,1.0,1.0*30
$GPRMC,182231.921,A,5903.832,N,00555.668,E,019.4,127.8,121217,000.0,W*76
$GPGGA,182232.921,5903.828,N,00555.674,E,1,12,1.0,0.0,M,0.0,M,,*61
$GPGSA,A,3,01,02,03,04,05,06,07,08,09,10,11,12,1.0,1.0,1.0*30
$GPRMC,182232.921,A,5903.828,N,00555.674,E,019.4,127.8,121217,000.0,W*73
$GPGGA,182233.921,5903.823,N,00555.679,E,1,12,1.0,0.0,M,0.0,M,,*66
$GPGSA,A,3,01,02,03,04,05,06,07,08,09,10,11,12,1.0,1.0,1.0*30
$GPRMC,182233.921,A,5903.823,N,00555.679,E,019.4,127.8,121217,000.0,W*74
$GPGGA,182234.921,5903.819,N,00555.685,E,1,12,1.0,0.0,M,0.0,M,,*6B
$GPGSA,A,3,01,02,03,04,05,06,07,08,09,10,11,12,1.0,1.0,1.0*30
$GPRMC,182234.921,A,5903.819,N,00555.685,E,019.4,127.8,121217,000.0,W*79
$GPGGA,182235.921,5903.814,N,00555.691,E,1,12,1.0,0.0,M,0.0,M,,*62
$GPGSA,A,3,01,02,03,04,05,06,07,08,09,10,11,12,1.0,1.0,1.0*30
$GPRMC,182235.921,A,5903.814,N,00555.691,E,019.4,127.8,121217,000.0,W*70
$GPGGA,182236.921,5903.810,N,00555.697,E,1,12,1.0,0.0,M,0.0,M,,*63
$GPGSA,A,3,01,02,03,04,05,06,07,08,09,10,11,12,1.0,1.0,1.0*30
$GPRMC,182236.921,A,5903.810,N,00555.697,E,019.4,127.8,121217,000.0,W*71
$GPGGA,182237.921,5903.805,N,00555.703,E,1,12,1.0,0.0,M,0.0,M,,*6A
$GPGSA,A,3,01,02,03,04,05,06,07,08,09,10,11,12,1.0,1.0,1.0*30
$GPRMC,182237.921,A,5903.805,N,00555.703,E,019.4,127.8,121217,000.0,W*78
$GPGGA,182238.921,5903.801,N,00555.708,E,1,12,1.0,0.0,M,0.0,M,,*6A
$GPGSA,A,3,01,02,03,04,05,06,07,08,09,10,11,12,1.0,1.0,1.0*30
$GPRMC,182238.921,A,5903.801,N,00555.708,E,019.4,127.8,121217,000.0,W*78
$GPGGA,182239.921,5903.796,N,00555.714,E,1,12,1.0,0.0,M,0.0,M,,*67
$GPGSA,A,3,01,02,03,04,05,06,07,08,09,10,11,12,1.0,1.0,1.0*30
$GPRMC,182239.921,A,5903.796,N,00555.714,E,019.4,127.8,121217,000.0,W*75
$GPGGA,182240.921,5903.792,N,00555.720,E,1,12,1.0,0.0,M,0.0,M,,*6A
$GPGSA,A,3,01,02,03,04,05,06,07,08,09,10,11,12,1.0,1.0,1.0*30
$GPRMC,182240.921,A,5903.792,N,00555.720,E,019.4,127.8,121217,000.0,W*78
$GPGGA,182241.921,5903.787,N,00555.726,E,1,12,1.0,0.0,M,0.0,M,,*69
$GPGSA,A,3,01,02,03,04,05,06,07,08,09,10,11,12,1.0,1.0,1.0*30
$GPRMC,182241.921,A,5903.787,N,00555.726,E,019.4,127.8,121217,000.0,W*7B
$GPGGA,182242.921,5903.783,N,00555.732,E,1,12,1.0,0.0,M,0.0,M,,*6B
$GPGSA,A,3,01,02,03,04,05,06,07,08,09,10,11,12,1.0,1.0,1.0*30
$GPRMC,182242.921,A,5903.783,N,00555.732,E,019.4,127.8,121217,000.0,W*79
$GPGGA,182243.921,5903.778,N,00555.738,E,1,12,1.0,0.0,M,0.0,M,,*64
$GPGSA,A,3,01,02,03,04,05,06,07,08,09,10,11,12,1.0,1.0,1.0*30
$GPRMC,182243.921,A,5903.778,N,00555.738,E,019.4,127.8,121217,000.0,W*76
$GPGGA,182244.921,5903.774,N,00555.743,E,1,12,1.0,0.0,M,0.0,M,,*63
$GPGSA,A,3,01,02,03,04,05,06,07,08,09,10,11,12,1.0,1.0,1.0*30
$GPRMC,182244.921,A,5903.774,N,00555.743,E,019.4,127.8,121217,000.0,W*71
$GPGGA,182245.921,5903.769,N,00555.749,E,1,12,1.0,0.0,M,0.0,M,,*64
$GPGSA,A,3,01,02,03,04,05,06,07,08,09,10,11,12,1.0,1.0,1.0*30
$GPRMC,182245.921,A,5903.769,N,00555.749,E,019.4,127.8,121217,000.0,W*76
$GPGGA,182246.921,5903.765,N,00555.755,E,1,12,1.0,0.0,M,0.0,M,,*66
$GPGSA,A,3,01,02,03,04,05,06,07,08,09,10,11,12,1.0,1.0,1.0*30
$GPRMC,182246.921,A,5903.765,N,00555.755,E,019.4,127.8,121217,000.0,W*74
$GPGGA,182247.921,5903.760,N,00555.761,E,1,12,1.0,0.0,M,0.0,M,,*65
$GPGSA,A,3,01,02,03,04,05,06,07,08,09,10,11,12,1.0,1.0,1.0*30
$GPRMC,182247.921,A,5903.760,N,00555.761,E,019.4,127.8,121217,000.0,W*77
$GPGGA,182248.921,5903.756,N,00555.767,E,1,12,1.0,0.0,M,0.0,M,,*69
$GPGSA,A,3,01,02,03,04,05,06,07,08,09,10,11,12,1.0,1.0,1.0*30
$GPRMC,182248.921,A,5903.756,N,00555.767,E,019.4,127.8,121217,000.0,W*7B
$GPGGA,182249.921,5903.751,N,00555.773,E,1,12,1.0,0.0,M,0.0,M,,*6A
$GPGSA,A,3,01,02,03,04,05,06,07,08,09,10,11,12,1.0,1.0,1.0*30
$GPRMC,182249.921,A,5903.751,N,00555.773,E,019.4,127.8,121217,000.0,W*78
$GPGGA,182250.921,5903.747,N,00555.778,E,1,12,1.0,0.0,M,0.0,M,,*6E
$GPGSA,A,3,01,02,03,04,05,06,07,08,09,10,11,12,1.0,1.0,1.0*30
$GPRMC,182250.921,A,5903.747,N,00555.778,E,019.4,127.8,121217,000.0,W*7C
$GPGGA,182251.921,5903.742,N,00555.784,E,1,12,1.0,0.0,M,0.0,M,,*69
$GPGSA,A,3,01,02,03,04,05,06,07,08,09,10,11,12,1.0,1.0,1.0*30
$GPRMC,182251.921,A,5903.742,N,00555.784,E,019.4,127.8,121217,000.0,W*7B
$GPGGA,182252.921,5903.738,N,00555.790,E,1,12,1.0,0.0,M,0.0,M,,*62
$GPGSA,A,3,01,02,03,04,05,06,07,08,09,10,11,12,1.0,1.0,1.0*30
$GPRMC,182252.921,A,5903.738,N,00555.790,E,019.4,127.8,121217,000.0,W*70
$GPGGA,182253.921,5903.734,N,00555.796,E,1,12,1.0,0.0,M,0.0,M,,*69
$GPGSA,A,3,01,02,03,04,05,06,07,08,09,10,11,12,1.0,1.0,1.0*30
$GPRMC,182253.921,A,5903.734,N,00555.796,E,019.4,127.8,121217,000.0,W*7B
$GPGGA,182254.921,5903.729,N,00555.802,E,1,12,1.0,0.0,M,0.0,M,,*60
$GPGSA,A,3,01,02,03,04,05,06,07,08,09,10,11,12,1.0,1.0,1.0*30
$GPRMC,182254.921,A,5903.729,N,00555.802,E,019.4,127.8,121217,000.0,W*72
$GPGGA,182255.921,5903.725,N,00555.807,E,1,12,1.0,0.0,M,0.0,M,,*68
$GPGSA,A,3,01,02,03,04,05,06,07,08,09,10,11,12,1.0,1.0,1.0*30
$GPRMC,182255.921,A,5903.725,N,00555.807,E,019.4,127.8,121217,000.0,W*7A
$GPGGA,182256.921,5903.720,N,00555.813,E,1,12,1.0,0.0,M,0.0,M,,*6B
$GPGSA,A,3,01,02,03,04,05,06,07,08,09,10,11,12,1.0,1.0,1.0*30
$GPRMC,182256.921,A,5903.720,N,00555.813,E,019.4,127.8,121217,000.0,W*79
$GPGGA,182257.921,5903.716,N,00555.819,E,1,12,1.0,0.0,M,0.0,M,,*65
$GPGSA,A,3,01,02,03,04,05,06,07,08,09,10,11,12,1.0,1.0,1.0*30
$GPRMC,182257.921,A,5903.716,N,00555.819,E,019.4,127.8,121217,000.0,W*77
$GPGGA,182258.921,5903.711,N,00555.825,E,1,12,1.0,0.0,M,0.0,M,,*62
$GPGSA,A,3,01,02,03,04,05,06,07,08,09,10,11,12,1.0,1.0,1.0*30
$GPRMC,182258.921,A,5903.711,N,00555.825,E,019.4,127.8,121217,000.0,W*70
$GPGGA,182259.921,5903.707,N,00555.831,E,1,12,1.0,0.0,M,0.0,M,,*61
$GPGSA,A,3,01,02,03,04,05,06,07,08,09,10,11,12,1.0,1.0,1.0*30
$GPRMC,182259.921,A,5903.707,N,00555.831,E,019.4,127.8,121217,000.0,W*73
$GPGGA,182300.921,5903.702,N,00555.837,E,1,12,1.0,0.0,M,0.0,M,,*6F
$GPGSA,A,3,01,02,03,04,05,06,07,08,09,10,11,12,1.0,1.0,1.0*30
$GPRMC,182300.921,A,5903.702,N,00555.837,E,019.4,127.8,121217,000.0,W*7D
$GPGGA,182301.921,5903.698,N,00555.842,E,1,12,1.0,0.0,M,0.0,M,,*6E
$GPGSA,A,3,01,02,03,04,05,06,07,08,09,10,11,12,1.0,1.0,1.0*30
$GPRMC,182301.921,A,5903.698,N,00555.842,E,019.4,127.8,121217,000.0,W*7C
$GPGGA,182302.921,5903.693,N,00555.848,E,1,12,1.0,0.0,M,0.0,M,,*6C
$GPGSA,A,3,01,02,03,04,05,06,07,08,09,10,11,12,1.0,1.0,1.0*30
$GPRMC,182302.921,A,5903.693,N,00555.848,E,019.4,127.8,121217,000.0,W*7E
$GPGGA,182303.921,5903.689,N,00555.854,E,1,12,1.0,0.0,M,0.0,M,,*6B
$GPGSA,A,3,01,02,03,04,05,06,07,08,09,10,11,12,1.0,1.0,1.0*30
$GPRMC,182303.921,A,5903.689,N,00555.854,E,019.4,127.8,121217,000.0,W*79
$GPGGA,182304.921,5903.684,N,00555.860,E,1,12,1.0,0.0,M,0.0,M,,*66
$GPGSA,A,3,01,02,03,04,05,06,07,08,09,10,11,12,1.0,1.0,1.0*30
$GPRMC,182304.921,A,5903.684,N,00555.860,E,019.4,127.8,121217,000.0,W*74
$GPGGA,182305.921,5903.680,N,00555.866,E,1,12,1.0,0.0,M,0.0,M,,*65
$GPGSA,A,3,01,02,03,04,05,06,07,08,09,10,11,12,1.0,1.0,1.0*30
$GPRMC,182305.921,A,5903.680,N,00555.866,E,019.4,127.8,121217,000.0,W*77
$GPGGA,182306.921,5903.675,N,00555.871,E,1,12,1.0,0.0,M,0.0,M,,*6A
$GPGSA,A,3,01,02,03,04,05,06,07,08,09,10,11,12,1.0,1.0,1.0*30
$GPRMC,182306.921,A,5903.675,N,00555.871,E,019.4,127.8,121217,000.0,W*78
$GPGGA,182307.921,5903.671,N,00555.877,E,1,12,1.0,0.0,M,0.0,M,,*69
$GPGSA,A,3,01,02,03,04,05,06,07,08,09,10,11,12,1.0,1.0,1.0*30
$GPRMC,182307.921,A,5903.671,N,00555.877,E,019.4,127.8,121217,000.0,W*7B
$GPGGA,182308.921,5903.666,N,00555.883,E,1,12,1.0,0.0,M,0.0,M,,*6B
$GPGSA,A,3,01,02,03,04,05,06,07,08,09,10,11,12,1.0,1.0,1.0*30
$GPRMC,182308.921,A,5903.666,N,00555.883,E,019.4,127.8,121217,000.0,W*79
$GPGGA,182309.921,5903.662,N,00555.889,E,1,12,1.0,0.0,M,0.0,M,,*64
$GPGSA,A,3,01,02,03,04,05,06,07,08,09,10,11,12,1.0,1.0,1.0*30
$GPRMC,182309.921,A,5903.662,N,00555.889,E,019.4,127.8,121217,000.0,W*76
$GPGGA,182310.921,5903.657,N,00555.895,E,1,12,1.0,0.0,M,0.0,M,,*67
$GPGSA,A,3,01,02,03,04,05,06,07,08,09,10,11,12,1.0,1.0,1.0*30
$GPRMC,182310.921,A,5903.657,N,00555.895,E,019.4,127.8,121217,000.0,W*75
$GPGGA,182311.921,5903.653,N,00555.901,E,1,12,1.0,0.0,M,0.0,M,,*6E
$GPGSA,A,3,01,02,03,04,05,06,07,08,09,10,11,12,1.0,1.0,1.0*30
$GPRMC,182311.921,A,5903.653,N,00555.901,E,019.4,127.8,121217,000.0,W*7C
$GPGGA,182312.921,5903.648,N,00555.906,E,1,12,1.0,0.0,M,0.0,M,,*60
$GPGSA,A,3,01,02,03,04,05,06,07,08,09,10,11,12,1.0,1.0,1.0*30
$GPRMC,182312.921,A,5903.648,N,00555.906,E,019.4,127.8,121217,000.0,W*72
$GPGGA,182313.921,5903.644,N,00555.912,E,1,12,1.0,0.0,M,0.0,M,,*68
$GPGSA,A,3,01,02,03,04,05,06,07,08,09,10,11,12,1.0,1.0,1.0*30
$GPRMC,182313.921,A,5903.644,N,00555.912,E,019.4,127.8,121217,000.0,W*7A
$GPGGA,182314.921,5903.639,N,00555.918,E,1,12,1.0,0.0,M,0.0,M,,*6F
$GPGSA,A,3,01,02,03,04,05,06,07,08,09,10,11,12,1.0,1.0,1.0*30
$GPRMC,182314.921,A,5903.639,N,00555.918,E,019.4,127.8,121217,000.0,W*7D
$GPGGA,182315.921,5903.635,N,00555.924,E,1,12,1.0,0.0,M,0.0,M,,*6D
$GPGSA,A,3,01,02,03,04,05,06,07,08,09,10,11,12,1.0,1.0,1.0*30
$GPRMC,182315.921,A,5903.635,N,00555.924,E,019.4,127.8,121217,000.0,W*7F
$GPGGA,182316.921,5903.630,N,00555.930,E,1,12,1.0,0.0,M,0.0,M,,*6E
$GPGSA,A,3,01,02,03,04,05,06,07,08,09,10,11,12,1.0,1.0,1.0*30
$GPRMC,182316.921,A,5903.630,N,00555.930,E,019.4,127.8,121217,000.0,W*7C
$GPGGA,182317.921,5903.626,N,00555.936,E,1,12,1.0,0.0,M,0.0,M,,*6E
$GPGSA,A,3,01,02,03,04,05,06,07,08,09,10,11,12,1.0,1.0,1.0*30
$GPRMC,182317.921,A,5903.626,N,00555.936,E,019.4,127.8,121217,000.0,W*7C
$GPGGA,182318.921,5903.621,N,00555.941,E,1,12,1.0,0.0,M,0.0,M,,*66
$GPGSA,A,3,01,02,03,04,05,06,07,08,09,10,11,12,1.0,1.0,1.0*30
$GPRMC,182318.921,A,5903.621,N,00555.941,E,019.4,127.8,121217,000.0,W*74
$GPGGA,182319.921,5903.617,N,00555.947,E,1,12,1.0,0.0,M,0.0,M,,*64
$GPGSA,A,3,01,02,03,04,05,06,07,08,09,10,11,12,1.0,1.0,1.0*30
$GPRMC,182319.921,A,5903.617,N,00555.947,E,019.4,127.8,121217,000.0,W*76
$GPGGA,182320.921,5903.612,N,00555.953,E,1,12,1.0,0.0,M,0.0,M,,*6E
$GPGSA,A,3,01,02,03,04,05,06,07,08,09,10,11,12,1.0,1.0,1.0*30
$GPRMC,182320.921,A,5903.612,N,00555.953,E,019.4,127.8,121217,000.0,W*7C
$GPGGA,182321.921,5903.608,N,00555.959,E,1,12,1.0,0.0,M,0.0,M,,*6E
$GPGSA,A,3,01,02,03,04,05,06,07,08,09,10,11,12,1.0,1.0,1.0*30
$GPRMC,182321.921,A,5903.608,N,00555.959,E,019.4,127.8,121217,000.0,W*7C
$GPGGA,182322.921,5903.603,N,00555.965,E,1,12,1.0,0.0,M,0.0,M,,*69
$GPGSA,A,3,01,02,03,04,05,06,07,08,09,10,11,12,1.0,1.0,1.0*30
$GPRMC,182322.921,A,5903.603,N,00555.965,E,019.4,127.8,121217,000.0,W*7B
$GPGGA,182323.921,5903.599,N,00555.970,E,1,12,1.0,0.0,M,0.0,M,,*6C
$GPGSA,A,3,01,02,03,04,05,06,07,08,09,10,11,12,1.0,1.0,1.0*30
$GPRMC,182323.921,A,5903.599,N,00555.970,E,019.4,127.8,121217,000.0,W*7E
$GPGGA,182324.921,5903.594,N,00555.976,E,1,12,1.0,0.0,M,0.0,M,,*60
$GPGSA,A,3,01,02,03,04,05,06,07,08,09,10,11,12,1.0,1.0,1.0*30
$GPRMC,182324.921,A,5903.594,N,00555.976,E,019.4,127.8,121217,000.0,W*72
$GPGGA,182325.921,5903.590,N,00555.982,E,1,12,1.0,0.0,M,0.0,M,,*6E
$GPGSA,A,3,01,02,03,04,05,06,07,08,09,10,11,12,1.0,1.0,1.0*30
$GPRMC,182325.921,A,5903.590,N,00555.982,E,019.4,127.8,121217,000.0,W*7C
$GPGGA,182326.921,5903.585,N,00555.988,E,1,12,1.0,0.0,M,0.0,M,,*63
$GPGSA,A,3,01,02,03,04,05,06,07,08,09,10,11,12,1.0,1.0,1.0*30
$GPRMC,182326.921,A,5903.585,N,00555.988,E,019.4,127.8,121217,000.0,W*71
$GPGGA,182327.921,5903.581,N,00555.994,E,1,12,1.0,0.0,M,0.0,M,,*6B
$GPGSA,A,3,01,02,03,04,05,06,07,08,09,10,11,12,1.0,1.0,1.0*30
$GPRMC,182327.921,A,5903.581,N,00555.994,E,019.4,127.8,121217,000.0,W*79
$GPGGA,182328.921,5903.576,N,00556.000,E,1,12,1.0,0.0,M,0.0,M,,*6B
$GPGSA,A,3,01,02,03,04,05,06,07,08,09,10,11,12,1.0,1.0,1.0*30
$GPRMC,182328.921,A,5903.576,N,00556.000,E,019.4,127.8,121217,000.0,W*79
$GPGGA,182329.921,5903.572,N,00556.005,E,1,12,1.0,0.0,M,0.0,M,,*6B
$GPGSA,A,3,01,02,03,04,05,06,07,08,09,10,11,12,1.0,1.0,1.0*30
$GPRMC,182329.921,A,5903.572,N,00556.005,E,019.4,127.8,121217,000.0,W*79
$GPGGA,182330.921,5903.567,N,00556.011,E,1,12,1.0,0.0,M,0.0,M,,*62
$GPGSA,A,3,01,02,03,04,05,06,07,08,09,10,11,12,1.0,1.0,1.0*30
$GPRMC,182330.921,A,5903.567,N,00556.011,E,019.4,127.8,121217,000.0,W*70
$GPGGA,182331.921,5903.563,N,00556.017,E,1,12,1.0,0.0,M,0.0,M,,*61
$GPGSA,A,3,01,02,03,04,05,06,07,08,09,10,11,12,1.0,1.0,1.0*30
$GPRMC,182331.921,A,5903.563,N,00556.017,E,019.4,127.8,121217,000.0,W*73
$GPGGA,182332.921,5903.558,N,00556.023,E,1,12,1.0,0.0,M,0.0,M,,*6D
$GPGSA,A,3,01,02,03,04,05,06,07,08,09,10,11,12,1.0,1.0,1.0*30
$GPRMC,182332.921,A,5903.558,N,00556.023,E,019.4,127.8,121217,000.0,W*7F
$GPGGA,182333.921,5903.554,N,00556.029,E,1,12,1.0,0.0,M,0.0,M,,*6A
$GPGSA,A,3,01,02,03,04,05,06,07,08,09,10,11,12,1.0,1.0,1.0*30
$GPRMC,182333.921,A,5903.554,N,00556.029,E,019.4,127.8,121217,000.0,W*78
$GPGGA,182334.921,5903.549,N,00556.034,E,1,12,1.0,0.0,M,0.0,M,,*6D
$GPGSA,A,3,01,02,03,04,05,06,07,08,09,10,11,12,1.0,1.0,1.0*30
$GPRMC,182334.921,A,5903.549,N,00556.034,E,019.4,127.8,121217,000.0,W*7F
$GPGGA,182335.921,5903.545,N,00556.040,E,1,12,1.0,0.0,M,0.0,M,,*63
$GPGSA,A,3,01,02,03,04,05,06,07,08,09,10,11,12,1.0,1.0,1.0*30
$GPRMC,182335.921,A,5903.545,N,00556.040,E,019.4,127.8,121217,000.0,W*71
$GPGGA,182336.921,5903.540,N,00556.046,E,1,12,1.0,0.0,M,0.0,M,,*63
$GPGSA,A,3,01,02,03,04,05,06,07,08,09,10,11,12,1.0,1.0,1.0*30
$GPRMC,182336.921,A,5903.540,N,00556.046,E,019.4,127.8,121217,000.0,W*71
$GPGGA,182337.921,5903.536,N,00556.052,E,1,12,1.0,0.0,M,0.0,M,,*66
$GPGSA,A,3,01,02,03,04,05,06,07,08,09,10,11,12,1.0,1.0,1.0*30
$GPRMC,182337.921,A,5903.536,N,00556.052,E,019.4,127.8,121217,000.0,W*74
$GPGGA,182338.921,5903.531,N,00556.058,E,1,12,1.0,0.0,M,0.0,M,,*64
$GPGSA,A,3,01,02,03,04,05,06,07,08,09,10,11,12,1.0,1.0,1.0*30
$GPRMC,182338.921,A,5903.531,N,00556.058,E,019.4,127.8,121217,000.0,W*76
$GPGGA,182339.921,5903.527,N,00556.064,E,1,12,1.0,0.0,M,0.0,M,,*6D
$GPGSA,A,3,01,02,03,04,05,06,07,08,09,10,11,12,1.0,1.0,1.0*30
$GPRMC,182339.921,A,5903.527,N,00556.064,E,019.4,127.8,121217,000.0,W*7F
$GPGGA,182340.921,5903.522,N,00556.069,E,1,12,1.0,0.0,M,0.0,M,,*6B
$GPGSA,A,3,01,02,03,04,05,06,07,08,09,10,11,12,1.0,1.0,1.0*30
$GPRMC,182340.921,A,5903.522,N,00556.069,E,019.4,127.8,121217,000.0,W*79
$GPGGA,182341.921,5903.518,N,00556.075,E,1,12,1.0,0.0,M,0.0,M,,*6E
$GPGSA,A,3,01,02,03,04,05,06,07,08,09,10,11,12,1.0,1.0,1.0*30
$GPRMC,182341.921,A,5903.518,N,00556.075,E,019.4,127.8,121217,000.0,W*7C
$GPGGA,182342.921,5903.514,N,00556.081,E,1,12,1.0,0.0,M,0.0,M,,*6A
$GPGSA,A,3,01,02,03,04,05,06,07,08,09,10,11,12,1.0,1.0,1.0*30
$GPRMC,182342.921,A,5903.514,N,00556.081,E,019.4,127.8,121217,000.0,W*78
$GPGGA,182343.921,5903.509,N,00556.087,E,1,12,1.0,0.0,M,0.0,M,,*61
$GPGSA,A,3,01,02,03,04,05,06,07,08,09,10,11,12,1.0,1.0,1.0*30
$GPRMC,182343.921,A,5903.509,N,00556.087,E,019.4,127.8,121217,000.0,W*73
$GPGGA,182344.921,5903.505,N,00556.093,E,1,12,1.0,0.0,M,0.0,M,,*6F
$GPGSA,A,3,01,02,03,04,05,06,07,08,09,10,11,12,1.0,1.0,1.0*30
$GPRMC,182344.921,A,5903.505,N,00556.093,E,019.4,127.8,121217,000.0,W*7D
$GPGGA,182345.921,5903.500,N,00556.099,E,1,12,1.0,0.0,M,0.0,M,,*61
$GPGSA,A,3,01,02,03,04,05,06,07,08,09,10,11,12,1.0,1.0,1.0*30
$GPRMC,182345.921,A,5903.500,N,00556.099,E,019.4,127.8,121217,000.0,W*73
$GPGGA,182346.921,5903.496,N,00556.104,E,1,12,1.0,0.0,M,0.0,M,,*69
$GPGSA,A,3,01,02,03,04,05,06,07,08,09,10,11,12,1.0,1.0,1.0*30
$GPRMC,182346.921,A,5903.496,N,00556.104,E,019.4,127.8,121217,000.0,W*7B
$GPGGA,182347.921,5903.491,N,00556.110,E,1,12,1.0,0.0,M,0.0,M,,*6A
$GPGSA,A,3,01,02,03,04,05,06,07,08,09,10,11,12,1.0,1.0,1.0*30
$GPRMC,182347.921,A,5903.491,N,00556.110,E,019.4,127.8,121217,000.0,W*78
$GPGGA,182348.921,5903.487,N,00556.116,E,1,12,1.0,0.0,M,0.0,M,,*64
$GPGSA,A,3,01,02,03,04,05,06,07,08,09,10,11,12,1.0,1.0,1.0*30
$GPRMC,182348.921,A,5903.487,N,00556.116,E,019.4,127.8,121217,000.0,W*76
$GPGGA,182349.921,5903.482,N,00556.122,E,1,12,1.0,0.0,M,0.0,M,,*67
$GPGSA,A,3,01,02,03,04,05,06,07,08,09,10,11,12,1.0,1.0,1.0*30
$GPRMC,182349.921,A,5903.482,N,00556.122,E,019.4,127.8,121217,000.0,W*75
$GPGGA,182350.921,5903.478,N,00556.128,E,1,12,1.0,0.0,M,0.0,M,,*60
$GPGSA,A,3,01,02,03,04,05,06,07,08,09,10,11,12,1.0,1.0,1.0*30
$GPRMC,182350.921,A,5903.478,N,00556.128,E,019.4,127.8,121217,000.0,W*72
$GPGGA,182351.921,5903.473,N,00556.133,E,1,12,1.0,0.0,M,0.0,M,,*60
$GPGSA,A,3,01,02,03,04,05,06,07,08,09,10,11,12,1.0,1.0,1.0*30
$GPRMC,182351.921,A,5903.473,N,00556.133,E,019.4,127.8,121217,000.0,W*72
$GPGGA,182352.921,5903.469,N,00556.139,E,1,12,1.0,0.0,M,0.0,M,,*62
$GPGSA,A,3,01,02,03,04,05,06,07,08,09,10,11,12,1.0,1.0,1.0*30
$GPRMC,182352.921,A,5903.469,N,00556.139,E,019.4,127.8,121217,000.0,W*70
$GPGGA,182353.921,5903.464,N,00556.145,E,1,12,1.0,0.0,M,0.0,M,,*65
$GPGSA,A,3,01,02,03,04,05,06,07,08,09,10,11,12,1.0,1.0,1.0*30
$GPRMC,182353.921,A,5903.464,N,00556.145,E,019.4,127.8,121217,000.0,W*77
$GPGGA,182354.921,5903.460,N,00556.151,E,1,12,1.0,0.0,M,0.0,M,,*63
$GPGSA,A,3,01,02,03,04,05,06,07,08,09,10,11,12,1.0,1.0,1.0*30
$GPRMC,182354.921,A,5903.460,N,00556.151,E,019.4,127.8,121217,000.0,W*71
$GPGGA,182355.921,5903.455,N,00556.157,E,1,12,1.0,0.0,M,0.0,M,,*62
$GPGSA,A,3,01,02,03,04,05,06,07,08,09,10,11,12,1.0,1.0,1.0*30
$GPRMC,182355.921,A,5903.455,N,00556.157,E,019.4,127.8,121217,000.0,W*70
$GPGGA,182356.921,5903.451,N,00556.163,E,1,12,1.0,0.0,M,0.0,M,,*62
$GPGSA,A,3,01,02,03,04,05,06,07,08,09,10,11,12,1.0,1.0,1.0*30
$GPRMC,182356.921,A,5903.451,N,00556.163,E,019.4,127.8,121217,000.0,W*70
$GPGGA,182357.921,5903.446,N,00556.168,E,1,12,1.0,0.0,M,0.0,M,,*6E
$GPGSA,A,3,01,02,03,04,05,06,07,08,09,10,11,12,1.0,1.0,1.0*30
$GPRMC,182357.921,A,5903.446,N,00556.168,E,019.4,127.8,121217,000.0,W*7C
$GPGGA,182358.921,5903.442,N,00556.174,E,1,12,1.0,0.0,M,0.0,M,,*68
$GPGSA,A,3,01,02,03,04,05,06,07,08,09,10,11,12,1.0,1.0,1.0*30
$GPRMC,182358.921,A,5903.442,N,00556.174,E,019.4,127.8,121217,000.0,W*7A
$GPGGA,182359.921,5903.437,N,00556.180,E,1,12,1.0,0.0,M,0.0,M,,*60
$GPGSA,A,3,01,02,03,04,05,06,07,08,09,10,11,12,1.0,1.0,1.0*30
$GPRMC,182359.921,A,5903.437,N,00556.180,E,019.4,127.8,121217,000.0,W*72
$GPGGA,182400.921,5903.433,N,00556.186,E,1,12,1.0,0.0,M,0.0,M,,*69
$GPGSA,A,3,01,02,03,04,05,06,07,08,09,10,11,12,1.0,1.0,1.0*30
$GPRMC,182400.921,A,5903.433,N,00556.186,E,019.4,127.8,121217,000.0,W*7B
$GPGGA,182401.921,5903.428,N,00556.192,E,1,12,1.0,0.0,M,0.0,M,,*67
$GPGSA,A,3,01,02,03,04,05,06,07,08,09,10,11,12,1.0,1.0,1.0*30
$GPRMC,182401.921,A,5903.428,N,00556.192,E,019.4,127.8,121217,000.0,W*75
$GPGGA,182402.921,5903.424,N,00556.197,E,1,12,1.0,0.0,M,0.0,M,,*6D
$GPGSA,A,3,01,02,03,04,05,06,07,08,09,10,11,12,1.0,1.0,1.0*30
$GPRMC,182402.921,A,5903.424,N,00556.197,E,019.4,127.8,121217,000.0,W*7F
$GPGGA,182403.921,5903.419,N,00556.203,E,1,12,1.0,0.0,M,0.0,M,,*6C
$GPGSA,A,3,01,02,03,04,05,06,07,08,09,10,11,12,1.0,1.0,1.0*30
$GPRMC,182403.921,A,5903.419,N,00556.203,E,019.4,127.8,121217,000.0,W*7E
$GPGGA,182404.921,5903.415,N,00556.209,E,1,12,1.0,0.0,M,0.0,M,,*6D
$GPGSA,A,3,01,02,03,04,05,06,07,08,09,10,11,12,1.0,1.0,1.0*30
$GPRMC,182404.921,A,5903.415,N,00556.209,E,019.4,127.8,121217,000.0,W*7F
$GPGGA,182405.921,5903.410,N,00556.215,E,1,12,1.0,0.0,M,0.0,M,,*64
$GPGSA,A,3,01,02,03,04,05,06,07,08,09,10,11,12,1.0,1.0,1.0*30
$GPRMC,182405.921,A,5903.410,N,00556.215,E,019.4,127.8,121217,000.0,W*76
$GPGGA,182406.921,5903.406,N,00556.221,E,1,12,1.0,0.0,M,0.0,M,,*67
$GPGSA,A,3,01,02,03,04,05,06,07,08,09,10,11,12,1.0,1.0,1.0*30
$GPRMC,182406.921,A,5903.406,N,00556.221,E,019.4,127.8,121217,000.0,W*75
$GPGGA,182407.921,5903.401,N,00556.227,E,1,12,1.0,0.0,M,0.0,M,,*67
$GPGSA,A,3,01,02,03,04,05,06,07,08,09,10,11,12,1.0,1.0,1.0*30
$GPRMC,182407.921,A,5903.401,N,00556.227,E,019.4,127.8,121217,000.0,W*75
$GPGGA,182408.921,5903.397,N,00556.232,E,1,12,1.0,0.0,M,0.0,M,,*64
$GPGSA,A,3,01,02,03,04,05,06,07,08,09,10,11,12,1.0,1.0,1.0*30
$GPRMC,182408.921,A,5903.397,N,00556.232,E,019.4,127.8,121217,000.0,W*76
$GPGGA,182409.921,5903.392,N,00556.238,E,1,12,1.0,0.0,M,0.0,M,,*6A
$GPGSA,A,3,01,02,03,04,05,06,07,08,09,10,11,12,1.0,1.0,1.0*30
$GPRMC,182409.921,A,5903.392,N,00556.238,E,019.4,127.8,121217,000.0,W*78
$GPGGA,182410.921,5903.388,N,00556.244,E,1,12,1.0,0.0,M,0.0,M,,*62
$GPGSA,A,3,01,02,03,04,05,06,07,08,09,10,11,12,1.0,1.0,1.0*30
$GPRMC,182410.921,A,5903.388,N,00556.244,E,019.4,127.8,121217,000.0,W*70
$GPGGA,182411.921,5903.383,N,00556.250,E,1,12,1.0,0.0,M,0.0,M,,*6D
$GPGSA,A,3,01,02,03,04,05,06,07,08,09,10,11,12,1.0,1.0,1.0*30
$GPRMC,182411.921,A,5903.383,N,00556.250,E,019.4,127.8,121217,000.0,W*7F
$GPGGA,182412.921,5903.379,N,00556.256,E,1,12,1.0,0.0,M,0.0,M,,*6D
$GPGSA,A,3,01,02,03,04,05,06,07,08,09,10,11,12,1.0,1.0,1.0*30
$GPRMC,182412.921,A,5903.379,N,00556.256,E,019.4,127.8,121217,000.0,W*7F
$GPGGA,182413.921,5903.374,N,00556.262,E,1,12,1.0,0.0,M,0.0,M,,*66
$GPGSA,A,3,01,02,03,04,05,06,07,08,09,10,11,12,1.0,1.0,1.0*30
$GPRMC,182413.921,A,5903.374,N,00556.262,E,019.4,127.8,121217,000.0,W*74
$GPGGA,182414.921,5903.370,N,00556.267,E,1,12,1.0,0.0,M,0.0,M,,*60
$GPGSA,A,3,01,02,03,04,05,06,07,08,09,10,11,12,1.0,1.0,1.0*30
$GPRMC,182414.921,A,5903.370,N,00556.267,E,019.4,127.8,121217,000.0,W*72
$GPGGA,182415.921,5903.365,N,00556.273,E,1,12,1.0,0.0,M,0.0,M,,*60
$GPGSA,A,3,01,02,03,04,05,06,07,08,09,10,11,12,1.0,1.0,1.0*30
$GPRMC,182415.921,A,5903.365,N,00556.273,E,019.4,127.8,121217,000.0,W*72
$GPGGA,182416.921,5903.361,N,00556.279,E,1,12,1.0,0.0,M,0.0,M,,*6D
$GPGSA,A,3,01,02,03,04,05,06,07,08,09,10,11,12,1.0,1.0,1.0*30
$GPRMC,182416.921,A,5903.361,N,00556.279,E,019.4,127.8,121217,000.0,W*7F
$GPGGA,182417.921,5903.356,N,00556.285,E,1,12,1.0,0.0,M,0.0,M,,*6B
$GPGSA,A,3,01,02,03,04,05,06,07,08,09,10,11,12,1.0,1.0,1.0*30
$GPRMC,182417.921,A,5903.356,N,00556.285,E,019.4,127.8,121217,000.0,W*79
$GPGGA,182418.921,5903.352,N,00556.291,E,1,12,1.0,0.0,M,0.0,M,,*65
$GPGSA,A,3,01,02,03,04,05,06,07,08,09,10,11,12,1.0,1.0,1.0*30
$GPRMC,182418.921,A,5903.352,N,00556.291,E,019.4,127.8,121217,000.0,W*77
$GPGGA,182419.921,5903.347,N,00556.296,E,1,12,1.0,0.0,M,0.0,M,,*67
$GPGSA,A,3,01,02,03,04,05,06,07,08,09,10,11,12,1.0,1.0,1.0*30
$GPRMC,182419.921,A,5903.347,N,00556.296,E,019.4,127.8,121217,000.0,W*75
$GPGGA,182420.921,5903.343,N,00556.302,E,1,12,1.0,0.0,M,0.0,M,,*65
$GPGSA,A,3,01,02,03,04,05,06,07,08,09,10,11,12,1.0,1.0,1.0*30
$GPRMC,182420.921,A,5903.343,N,00556.302,E,019.4,127.8,121217,000.0,W*77
$GPGGA,182421.921,5903.338,N,00556.308,E,1,12,1.0,0.0,M,0.0,M,,*62
$GPGSA,A,3,01,02,03,04,05,06,07,08,09,10,11,12,1.0,1.0,1.0*30
$GPRMC,182421.921,A,5903.338,N,00556.308,E,019.4,127.8,121217,000.0,W*70
$GPGGA,182422.921,5903.334,N,00556.314,E,1,12,1.0,0.0,M,0.0,M,,*60
$GPGSA,A,3,01,02,03,04,05,06,07,08,09,10,11,12,1.0,1.0,1.0*30
$GPRMC,182422.921,A,5903.334,N,00556.314,E,019.4,127.8,121217,000.0,W*72
$GPGGA,182423.921,5903.329,N,00556.320,E,1,12,1.0,0.0,M,0.0,M,,*6A
$GPGSA,A,3,01,02,03,04,05,06,07,08,09,10,11,12,1.0,1.0,1.0*30
$GPRMC,182423.921,A,5903.329,N,00556.320,E,019.4,127.8,121217,000.0,W*78
$GPGGA,182424.921,5903.325,N,00556.326,E,1,12,1.0,0.0,M,0.0,M,,*67
$GPGSA,A,3,01,02,03,04,05,06,07,08,09,10,11,12,1.0,1.0,1.0*30
$GPRMC,182424.921,A,5903.325,N,00556.326,E,019.4,127.8,121217,000.0,W*75
$GPGGA,182425.921,5903.320,N,00556.331,E,1,12,1.0,0.0,M,0.0,M,,*65
$GPGSA,A,3,01,02,03,04,05,06,07,08,09,10,11,12,1.0,1.0,1.0*30
$GPRMC,182425.921,A,5903.320,N,00556.331,E,019.4,127.8,121217,000.0,W*77
$GPGGA,182426.921,5903.316,N,00556.337,E,1,12,1.0,0.0,M,0.0,M,,*65
$GPGSA,A,3,01,02,03,04,05,06,07,08,09,10,11,12,1.0,1.0,1.0*30
$GPRMC,182426.921,A,5903.316,N,00556.337,E,019.4,127.8,121217,000.0,W*77
$GPGGA,182427.921,5903.311,N,00556.343,E,1,12,1.0,0.0,M,0.0,M,,*60
$GPGSA,A,3,01,02,03,04,05,06,07,08,09,10,11,12,1.0,1.0,1.0*30
$GPRMC,182427.921,A,5903.311,N,00556.343,E,019.4,127.8,121217,000.0,W*72
$GPGGA,182428.921,5903.307,N,00556.349,E,1,12,1.0,0.0,M,0.0,M,,*62
$GPGSA,A,3,01,02,03,04,05,06,07,08,09,10,11,12,1.0,1.0,1.0*30
$GPRMC,182428.921,A,5903.307,N,00556.349,E,019.4,127.8,121217,000.0,W*70
$GPGGA,182429.921,5903.303,N,00556.355,E,1,12,1.0,0.0,M,0.0,M,,*6A
$GPGSA,A,3,01,02,03,04,05,06,07,08,09,10,11,12,1.0,1.0,1.0*30
$GPRMC,182429.921,A,5903.303,N,00556.355,E,019.4,127.8,121217,000.0,W*78
$GPGGA,182430.921,5903.298,N,00556.360,E,1,12,1.0,0.0,M,0.0,M,,*67
$GPGSA,A,3,01,02,03,04,05,06,07,08,09,10,11,12,1.0,1.0,1.0*30
$GPRMC,182430.921,A,5903.298,N,00556.360,E,019.4,127.8,121217,000.0,W*75
$GPGGA,182431.921,5903.294,N,00556.366,E,1,12,1.0,0.0,M,0.0,M,,*6C
$GPGSA,A,3,01,02,03,04,05,06,07,08,09,10,11,12,1.0,1.0,1.0*30
$GPRMC,182431.921,A,5903.294,N,00556.366,E,019.4,127.8,121217,000.0,W*7E
$GPGGA,182432.921,5903.289,N,00556.372,E,1,12,1.0,0.0,M,0.0,M,,*66
$GPGSA,A,3,01,02,03,04,05,06,07,08,09,10,11,12,1.0,1.0,1.0*30
$GPRMC,182432.921,A,5903.289,N,00556.372,E,019.4,127.8,121217,000.0,W*74
$GPGGA,182433.921,5903.285,N,00556.378,E,1,12,1.0,0.0,M,0.0,M,,*61
$GPGSA,A,3,01,02,03,04,05,06,07,08,09,10,11,12,1.0,1.0,1.0*30
$GPRMC,182433.921,A,5903.285,N,00556.378,E,019.4,127.8,121217,000.0,W*73
$GPGGA,182434.921,5903.280,N,00556.384,E,1,12,1.0,0.0,M,0.0,M,,*60
$GPGSA,A,3,01,02,03,04,05,06,07,08,09,10,11,12,1.0,1.0,1.0*30
$GPRMC,182434.921,A,5903.280,N,00556.384,E,019.4,127.8,121217,000.0,W*72
$GPGGA,182435.921,5903.276,N,00556.390,E,1,12,1.0,0.0,M,0.0,M,,*6D
$GPGSA,A,3,01,02,03,04,05,06,07,08,09,10,11,12,1.0,1.0,1.0*30
$GPRMC,182435.921,A,5903.276,N,00556.390,E,019.4,127.8,121217,000.0,W*7F
$GPGGA,182436.921,5903.271,N,00556.395,E,1,12,1.0,0.0,M,0.0,M,,*6C
$GPGSA,A,3,01,02,03,04,05,06,07,08,09,10,11,12,1.0,1.0,1.0*30
$GPRMC,182436.921,A,5903.271,N,00556.395,E,019.4,127.8,121217,000.0,W*7E
$GPGGA,182437.921,5903.267,N,00556.401,E,1,12,1.0,0.0,M,0.0,M,,*60
$GPGSA,A,3,01,02,03,04,05,06,07,08,09,10,11,12,1.0,1.0,1.0*30
$GPRMC,182437.921,A,5903.267,N,00556.401,E,019.4,127.8,121217,000.0,W*72
$GPGGA,182438.921,5903.262,N,00556.407,E,1,12,1.0,0.0,M,0.0,M,,*6C
$GPGSA,A,3,01,02,03,04,05,06,07,08,09,10,11,12,1.0,1.0,1.0*30
$GPRMC,182438.921,A,5903.262,N,00556.407,E,019.4,127.8,121217,000.0,W*7E
$GPGGA,182439.921,5903.258,N,00556.413,E,1,12,1.0,0.0,M,0.0,M,,*61
$GPGSA,A,3,01,02,03,04,05,06,07,08,09,10,11,12,1.0,1.0,1.0*30
$GPRMC,182439.921,A,5903.258,N,00556.413,E,019.4,127.8,121217,000.0,W*73
$GPGGA,182440.921,5903.253,N,00556.419,E,1,12,1.0,0.0,M,0.0,M,,*6E
$GPGSA,A,3,01,02,03,04,05,06,07,08,09,10,11,12,1.0,1.0,1.0*30
$GPRMC,182440.921,A,5903.253,N,00556.419,E,019.4,127.8,121217,000.0,W*7C
$GPGGA,182441.921,5903.249,N,00556.425,E,1,12,1.0,0.0,M,0.0,M,,*6B
$GPGSA,A,3,01,02,03,04,05,06,07,08,09,10,11,12,1.0,1.0,1.0*30
$GPRMC,182441.921,A,5903.249,N,00556.425,E,019.4,127.8,121217,000.0,W*79
$GPGGA,182442.921,5903.244,N,00556.430,E,1,12,1.0,0.0,M,0.0,M,,*61
$GPGSA,A,3,01,02,03,04,05,06,07,08,09,10,11,12,1.0,1.0,1.0*30
$GPRMC,182442.921,A,5903.244,N,00556.430,E,019.4,127.8,121217,000.0,W*73
$GPGGA,182443.921,5903.240,N,00556.436,E,1,12,1.0,0.0,M,0.0,M,,*62
$GPGSA,A,3,01,02,03,04,05,06,07,08,09,10,11,12,1.0,1.0,1.0*30
$GPRMC,182443.921,A,5903.240,N,00556.436,E,019.4,127.8,121217,000.0,W*70
$GPGGA,182444.921,5903.235,N,00556.442,E,1,12,1.0,0.0,M,0.0,M,,*64
$GPGSA,A,3,01,02,03,04,05,06,07,08,09,10,11,12,1.0,1.0,1.0*30
$GPRMC,182444.921,A,5903.235,N,00556.442,E,019.4,127.8,121217,000.0,W*76
$GPGGA,182445.921,5903.231,N,00556.448,E,1,12,1.0,0.0,M,0.0,M,,*6B
$GPGSA,A,3,01,02,03,04,05,06,07,08,09,10,11,12,1.0,1.0,1.0*30
$GPRMC,182445.921,A,5903.231,N,00556.448,E,019.4,127.8,121217,000.0,W*79
$GPGGA,182446.921,5903.226,N,00556.454,E,1,12,1.0,0.0,M,0.0,M,,*63
$GPGSA,A,3,01,02,03,04,05,06,07,08,09,10,11,12,1.0,1.0,1.0*30
$GPRMC,182446.921,A,5903.226,N,00556.454,E,019.4,127.8,121217,000.0,W*71
$GPGGA,182447.921,5903.222,N,00556.459,E,1,12,1.0,0.0,M,0.0,M,,*6B
$GPGSA,A,3,01,02,03,04,05,06,07,08,09,10,11,12,1.0,1.0,1.0*30
$GPRMC,182447.921,A,5903.222,N,00556.459,E,019.4,127.8,121217,000.0,W*79
$GPGGA,182448.921,5903.217,N,00556.465,E,1,12,1.0,0.0,M,0.0,M,,*6D
$GPGSA,A,3,01,02,03,04,05,06,07,08,09,10,11,12,1.0,1.0,1.0*30
$GPRMC,182448.921,A,5903.217,N,00556.465,E,019.4,127.8,121217,000.0,W*7F
$GPGGA,182449.921,5903.213,N,00556.471,E,1,12,1.0,0.0,M,0.0,M,,*6D
$GPGSA,A,3,01,02,03,04,05,06,07,08,09,10,11,12,1.0,1.0,1.0*30
$GPRMC,182449.921,A,5903.213,N,00556.471,E,019.4,127.8,121217,000.0,W*7F
$GPGGA,182450.921,5903.208,N,00556.477,E,1,12,1.0,0.0,M,0.0,M,,*69
$GPGSA,A,3,01,02,03,04,05,06,07,08,09,10,11,12,1.0,1.0,1.0*30
$GPRMC,182450.921,A,5903.208,N,00556.477,E,019.4,127.8,121217,000.0,W*7B
$GPGGA,182451.921,5903.204,N,00556.483,E,1,12,1.0,0.0,M,0.0,M,,*6F
$GPGSA,A,3,01,02,03,04,05,06,07,08,09,10,11,12,1.0,1.0,1.0*30
$GPRMC,182451.921,A,5903.204,N,00556.483,E,019.4,127.8,121217,000.0,W*7D
$GPGGA,182452.921,5903.199,N,00556.489,E,1,12,1.0,0.0,M,0.0,M,,*61
$GPGSA,A,3,01,02,03,04,05,06,07,08,09,10,11,12,1.0,1.0,1.0*30
$GPRMC,182452.921,A,5903.199,N,00556.489,E,019.4,127.8,121217,000.0,W*73
$GPGGA,182453.921,5903.195,N,00556.494,E,1,12,1.0,0.0,M,0.0,M,,*60
$GPGSA,A,3,01,02,03,04,05,06,07,08,09,10,11,12,1.0,1.0,1.0*30
$GPRMC,182453.921,A,5903.195,N,00556.494,E,019.4,127.8,121217,000.0,W*72
$GPGGA,182454.921,5903.190,N,00556.500,E,1,12,1.0,0.0,M,0.0,M,,*6E
$GPGSA,A,3,01,02,03,04,05,06,07,08,09,10,11,12,1.0,1.0,1.0*30
$GPRMC,182454.921,A,5903.190,N,00556.500,E,019.4,127.8,121217,000.0,W*7C
$GPGGA,182455.921,5903.186,N,00556.506,E,1,12,1.0,0.0,M,0.0,M,,*6E
$GPGSA,A,3,01,02,03,04,05,06,07,08,09,10,11,12,1.0,1.0,1.0*30
$GPRMC,182455.921,A,5903.186,N,00556.506,E,019.4,127.8,121217,000.0,W*7C
$GPGGA,182456.921,5903.181,N,00556.512,E,1,12,1.0,0.0,M,0.0,M,,*6F
$GPGSA,A,3,01,02,03,04,05,06,07,08,09,10,11,12,1.0,1.0,1.0*30
$GPRMC,182456.921,A,5903.181,N,00556.512,E,019.4,127.8,121217,000.0,W*7D
$GPGGA,182457.921,5903.177,N,00556.518,E,1,12,1.0,0.0,M,0.0,M,,*6D
$GPGSA,A,3,01,02,03,04,05,06,07,08,09,10,11,12,1.0,1.0,1.0*30
$GPRMC,182457.921,A,5903.177,N,00556.518,E,019.4,127.8,121217,000.0,W*7F
$GPGGA,182458.921,5903.172,N,00556.523,E,1,12,1.0,0.0,M,0.0,M,,*6F
$GPGSA,A,3,01,02,03,04,05,06,07,08,09,10,11,12,1.0,1.0,1.0*30
$GPRMC,182458.921,A,5903.172,N,00556.523,E,019.4,127.8,121217,000.0,W*7D
$GPGGA,182459.921,5903.168,N,00556.529,E,1,12,1.0,0.0,M,0.0,M,,*6F
$GPGSA,A,3,01,02,03,04,05,06,07,08,09,10,11,12,1.0,1.0,1.0*30
$GPRMC,182459.921,A,5903.168,N,00556.529,E,019.4,127.8,121217,000.0,W*7D
$GPGGA,182500.921,5903.163,N,00556.535,E,1,12,1.0,0.0,M,0.0,M,,*64
$GPGSA,A,3,01,02,03,04,05,06,07,08,09,10,11,12,1.0,1.0,1.0*30
$GPRMC,182500.921,A,5903.163,N,00556.535,E,019.4,127.8,121217,000.0,W*76
$GPGGA,182501.921,5903.159,N,00556.541,E,1,12,1.0,0.0,M,0.0,M,,*6F
$GPGSA,A,3,01,02,03,04,05,06,07,08,09,10,11,12,1.0,1.0,1.0*30
$GPRMC,182501.921,A,5903.159,N,00556.541,E,019.4,127.8,121217,000.0,W*7D
$GPGGA,182502.921,5903.154,N,00556.547,E,1,12,1.0,0.0,M,0.0,M,,*67
$GPGSA,A,3,01,02,03,04,05,06,07,08,09,10,11,12,1.0,1.0,1.0*30
$GPRMC,182502.921,A,5903.154,N,00556.547,E,019.4,127.8,121217,000.0,W*75
$GPGGA,182503.921,5903.150,N,00556.553,E,1,12,1.0,0.0,M,0.0,M,,*67
$GPGSA,A,3,01,02,03,04,05,06,07,08,09,10,11,12,1.0,1.0,1.0*30
$GPRMC,182503.921,A,5903.150,N,00556.553,E,019.4,127.8,121217,000.0,W*75
$GPGGA,182504.921,5903.145,N,00556.558,E,1,12,1.0,0.0,M,0.0,M,,*6F
$GPGSA,A,3,01,02,03,04,05,06,07,08,09,10,11,12,1.0,1.0,1.0*30
$GPRMC,182504.921,A,5903.145,N,00556.558,E,019.4,127.8,121217,000.0,W*7D
$GPGGA,182505.921,5903.141,N,00556.564,E,1,12,1.0,0.0,M,0.0,M,,*65
$GPGSA,A,3,01,02,03,04,05,06,07,08,09,10,11,12,1.0,1.0,1.0*30
$GPRMC,182505.921,A,5903.141,N,00556.564,E,019.4,127.8,121217,000.0,W*77
$GPGGA,182506.921,5903.136,N,00556.570,E,1,12,1.0,0.0,M,0.0,M,,*63
$GPGSA,A,3,01,02,03,04,05,06,07,08,09,10,11,12,1.0,1.0,1.0*30
$GPRMC,182506.921,A,5903.136,N,00556.570,E,019.4,097.5,121217,000.0,W*76
$GPGGA,182507.921,5903.135,N,00556.580,E,1,12,1.0,0.0,M,0.0,M,,*6E
$GPGSA,A,3,01,02,03,04,05,06,07,08,09,10,11,12,1.0,1.0,1.0*30
$GPRMC,182507.921,A,5903.135,N,00556.580,E,019.4,097.5,121217,000.0,W*7B
$GPGGA,182508.921,5903.134,N,00556.590,E,1,12,1.0,0.0,M,0.0,M,,*61
$GPGSA,A,3,01,02,03,04,05,06,07,08,09,10,11,12,1.0,1.0,1.0*30
$GPRMC,182508.921,A,5903.134,N,00556.590,E,019.4,097.5,121217,000.0,W*74
$GPGGA,182509.921,5903.132,N,00556.601,E,1,12,1.0,0.0,M,0.0,M,,*6D
$GPGSA,A,3,01,02,03,04,05,06,07,08,09,10,11,12,1.0,1.0,1.0*30
$GPRMC,182509.921,A,5903.132,N,00556.601,E,019.4,097.5,121217,000.0,W*78
$GPGGA,182510.921,5903.131,N,00556.611,E,1,12,1.0,0.0,M,0.0,M,,*67
$GPGSA,A,3,01,02,03,04,05,06,07,08,09,10,11,12,1.0,1.0,1.0*30
$GPRMC,182510.921,A,5903.131,N,00556.611,E,019.4,097.5,121217,000.0,W*72
$GPGGA,182511.921,5903.130,N,00556.621,E,1,12,1.0,0.0,M,0.0,M,,*64
$GPGSA,A,3,01,02,03,04,05,06,07,08,09,10,11,12,1.0,1.0,1.0*30
$GPRMC,182511.921,A,5903.130,N,00556.621,E,019.4,097.5,121217,000.0,W*71
$GPGGA,182512.921,5903.128,N,00556.631,E,1,12,1.0,0.0,M,0.0,M,,*6F
$GPGSA,A,3,01,02,03,04,05,06,07,08,09,10,11,12,1.0,1.0,1.0*30
$GPRMC,182512.921,A,5903.128,N,00556.631,E,019.4,097.5,121217,000.0,W*7A
$GPGGA,182513.921,5903.127,N,00556.641,E,1,12,1.0,0.0,M,0.0,M,,*66
$GPGSA,A,3,01,02,03,04,05,06,07,08,09,10,11,12,1.0,1.0,1.0*30
$GPRMC,182513.921,A,5903.127,N,00556.641,E,019.4,097.5,121217,000.0,W*73
$GPGGA,182514.921,5903.126,N,00556.651,E,1,12,1.0,0.0,M,0.0,M,,*61
$GPGSA,A,3,01,02,03,04,05,06,07,08,09,10,11,12,1.0,1.0,1.0*30
$GPRMC,182514.921,A,5903.126,N,00556.651,E,019.4,097.5,121217,000.0,W*74
$GPGGA,182515.921,5903.124,N,00556.662,E,1,12,1.0,0.0,M,0.0,M,,*62
$GPGSA,A,3,01,02,03,04,05,06,07,08,09,10,11,12,1.0,1.0,1.0*30
$GPRMC,182515.921,A,5903.124,N,00556.662,E,019.4,097.5,121217,000.0,W*77
$GPGGA,182516.921,5903.123,N,00556.672,E,1,12,1.0,0.0,M,0.0,M,,*67
$GPGSA,A,3,01,02,03,04,05,06,07,08,09,10,11,12,1.0,1.0,1.0*30
$GPRMC,182516.921,A,5903.123,N,00556.672,E,019.4,097.5,121217,000.0,W*72
$GPGGA,182517.921,5903.122,N,00556.682,E,1,12,1.0,0.0,M,0.0,M,,*68
$GPGSA,A,3,01,02,03,04,05,06,07,08,09,10,11,12,1.0,1.0,1.0*30
$GPRMC,182517.921,A,5903.122,N,00556.682,E,019.4,097.5,121217,000.0,W*7D
$GPGGA,182518.921,5903.120,N,00556.692,E,1,12,1.0,0.0,M,0.0,M,,*64
$GPGSA,A,3,01,02,03,04,05,06,07,08,09,10,11,12,1.0,1.0,1.0*30
$GPRMC,182518.921,A,5903.120,N,00556.692,E,019.4,097.5,121217,000.0,W*71
$GPGGA,182519.921,5903.119,N,00556.702,E,1,12,1.0,0.0,M,0.0,M,,*67
$GPGSA,A,3,01,02,03,04,05,06,07,08,09,10,11,12,1.0,1.0,1.0*30
$GPRMC,182519.921,A,5903.119,N,00556.702,E,019.4,097.5,121217,000.0,W*72
$GPGGA,182520.921,5903.118,N,00556.712,E,1,12,1.0,0.0,M,0.0,M,,*6D
$GPGSA,A,3,01,02,03,04,05,06,07,08,09,10,11,12,1.0,1.0,1.0*30
$GPRMC,182520.921,A,5903.118,N,00556.712,E,019.4,097.5,121217,000.0,W*78
$GPGGA,182521.921,5903.116,N,00556.723,E,1,12,1.0,0.0,M,0.0,M,,*60
$GPGSA,A,3,01,02,03,04,05,06,07,08,09,10,11,12,1.0,1.0,1.0*30
$GPRMC,182521.921,A,5903.116,N,00556.723,E,019.4,097.5,121217,000.0,W*75
$GPGGA,182522.921,5903.115,N,00556.733,E,1,12,1.0,0.0,M,0.0,M,,*61
$GPGSA,A,3,01,02,03,04,05,06,07,08,09,10,11,12,1.0,1.0,1.0*30
$GPRMC,182522.921,A,5903.115,N,00556.733,E,019.4,097.5,121217,000.0,W*74
$GPGGA,182523.921,5903.114,N,00556.743,E,1,12,1.0,0.0,M,0.0,M,,*66
$GPGSA,A,3,01,02,03,04,05,06,07,08,09,10,11,12,1.0,1.0,1.0*30
$GPRMC,182523.921,A,5903.114,N,00556.743,E,019.4,097.5,121217,000.0,W*73
$GPGGA,182524.921,5903.112,N,00556.753,E,1,12,1.0,0.0,M,0.0,M,,*66
$GPGSA,A,3,01,02,03,04,05,06,07,08,09,10,11,12,1.0,1.0,1.0*30
$GPRMC,182524.921,A,5903.112,N,00556.753,E,019.4,097.5,121217,000.0,W*73
$GPGGA,182525.921,5903.111,N,00556.763,E,1,12,1.0,0.0,M,0.0,M,,*67
$GPGSA,A,3,01,02,03,04,05,06,07,08,09,10,11,12,1.0,1.0,1.0*30
$GPRMC,182525.921,A,5903.111,N,00556.763,E,019.4,097.5,121217,000.0,W*72
$GPGGA,182526.921,5903.110,N,00556.773,E,1,12,1.0,0.0,M,0.0,M,,*64
$GPGSA,A,3,01,02,03,04,05,06,07,08,09,10,11,12,1.0,1.0,1.0*30
$GPRMC,182526.921,A,5903.110,N,00556.773,E,019.4,097.5,121217,000.0,W*71
$GPGGA,182527.921,5903.108,N,00556.783,E,1,12,1.0,0.0,M,0.0,M,,*63
$GPGSA,A,3,01,02,03,04,05,06,07,08,09,10,11,12,1.0,1.0,1.0*30
$GPRMC,182527.921,A,5903.108,N,00556.783,E,019.4,097.5,121217,000.0,W*76
$GPGGA,182528.921,5903.107,N,00556.794,E,1,12,1.0,0.0,M,0.0,M,,*65
$GPGSA,A,3,01,02,03,04,05,06,07,08,09,10,11,12,1.0,1.0,1.0*30
$GPRMC,182528.921,A,5903.107,N,00556.794,E,019.4,097.5,121217,000.0,W*70
$GPGGA,182529.921,5903.106,N,00556.804,E,1,12,1.0,0.0,M,0.0,M,,*63
$GPGSA,A,3,01,02,03,04,05,06,07,08,09,10,11,12,1.0,1.0,1.0*30
$GPRMC,182529.921,A,5903.106,N,00556.804,E,019.4,097.5,121217,000.0,W*76
$GPGGA,182530.921,5903.104,N,00556.814,E,1,12,1.0,0.0,M,0.0,M,,*68
$GPGSA,A,3,01,02,03,04,05,06,07,08,09,10,11,12,1.0,1.0,1.0*30
$GPRMC,182530.921,A,5903.104,N,00556.814,E,019.4,097.5,121217,000.0,W*7D
$GPGGA,182531.921,5903.103,N,00556.824,E,1,12,1.0,0.0,M,0.0,M,,*6D
$GPGSA,A,3,01,02,03,04,05,06,07,08,09,10,11,12,1.0,1.0,1.0*30
$GPRMC,182531.921,A,5903.103,N,00556.824,E,019.4,097.5,121217,000.0,W*78
$GPGGA,182532.921,5903.102,N,00556.834,E,1,12,1.0,0.0,M,0.0,M,,*6E
$GPGSA,A,3,01,02,03,04,05,06,07,08,09,10,11,12,1.0,1.0,1.0*30
$GPRMC,182532.921,A,5903.102,N,00556.834,E,019.4,097.5,121217,000.0,W*7B
$GPGGA,182533.921,5903.100,N,00556.844,E,1,12,1.0,0.0,M,0.0,M,,*6A
$GPGSA,A,3,01,02,03,04,05,06,07,08,09,10,11,12,1.0,1.0,1.0*30
$GPRMC,182533.921,A,5903.100,N,00556.844,E,019.4,097.5,121217,000.0,W*7F
$GPGGA,182534.921,5903.099,N,00556.855,E,1,12,1.0,0.0,M,0.0,M,,*6C
$GPGSA,A,3,01,02,03,04,05,06,07,08,09,10,11,12,1.0,1.0,1.0*30
$GPRMC,182534.921,A,5903.099,N,00556.855,E,019.4,097.5,121217,000.0,W*79
$GPGGA,182535.921,5903.098,N,00556.865,E,1,12,1.0,0.0,M,0.0,M,,*6F
$GPGSA,A,3,01,02,03,04,05,06,07,08,09,10,11,12,1.0,1.0,1.0*30
$GPRMC,182535.921,A,5903.098,N,00556.865,E,019.4,097.5,121217,000.0,W*7A
$GPGGA,182536.921,5903.096,N,00556.875,E,1,12,1.0,0.0,M,0.0,M,,*63
$GPGSA,A,3,01,02,03,04,05,06,07,08,09,10,11,12,1.0,1.0,1.0*30
$GPRMC,182536.921,A,5903.096,N,00556.875,E,019.4,097.5,121217,000.0,W*76
$GPGGA,182537.921,5903.095,N,00556.885,E,1,12,1.0,0.0,M,0.0,M,,*6E
$GPGSA,A,3,01,02,03,04,05,06,07,08,09,10,11,12,1.0,1.0,1.0*30
$GPRMC,182537.921,A,5903.095,N,00556.885,E,019.4,097.5,121217,000.0,W*7B
$GPGGA,182538.921,5903.094,N,00556.895,E,1,12,1.0,0.0,M,0.0,M,,*61
$GPGSA,A,3,01,02,03,04,05,06,07,08,09,10,11,12,1.0,1.0,1.0*30
$GPRMC,182538.921,A,5903.094,N,00556.895,E,019.4,097.5,121217,000.0,W*74
$GPGGA,182539.921,5903.092,N,00556.905,E,1,12,1.0,0.0,M,0.0,M,,*6E
$GPGSA,A,3,01,02,03,04,05,06,07,08,09,10,11,12,1.0,1.0,1.0*30
$GPRMC,182539.921,A,5903.092,N,00556.905,E,019.4,097.5,121217,000.0,W*7B
$GPGGA,182540.921,5903.091,N,00556.916,E,1,12,1.0,0.0,M,0.0,M,,*61
$GPGSA,A,3,01,02,03,04,05,06,07,08,09,10,11,12,1.0,1.0,1.0*30
$GPRMC,182540.921,A,5903.091,N,00556.916,E,019.4,097.5,121217,000.0,W*74
$GPGGA,182541.921,5903.090,N,00556.926,E,1,12,1.0,0.0,M,0.0,M,,*62
$GPGSA,A,3,01,02,03,04,05,06,07,08,09,10,11,12,1.0,1.0,1.0*30
$GPRMC,182541.921,A,5903.090,N,00556.926,E,019.4,097.5,121217,000.0,W*77
$GPGGA,182542.921,5903.088,N,00556.936,E,1,12,1.0,0.0,M,0.0,M,,*69
$GPGSA,A,3,01,02,03,04,05,06,07,08,09,10,11,12,1.0,1.0,1.0*30
$GPRMC,182542.921,A,5903.088,N,00556.936,E,019.4,097.5,121217,000.0,W*7C
$GPGGA,182543.921,5903.087,N,00556.946,E,1,12,1.0,0.0,M,0.0,M,,*60
$GPGSA,A,3,01,02,03,04,05,06,07,08,09,10,11,12,1.0,1.0,1.0*30
$GPRMC,182543.921,A,5903.087,N,00556.946,E,019.4,097.5,121217,000.0,W*75
$GPGGA,182544.921,5903.086,N,00556.956,E,1,12,1.0,0.0,M,0.0,M,,*67
$GPGSA,A,3,01,02,03,04,05,06,07,08,09,10,11,12,1.0,1.0,1.0*30
$GPRMC,182544.921,A,5903.086,N,00556.956,E,019.4,097.5,121217,000.0,W*72
$GPGGA,182545.921,5903.084,N,00556.966,E,1,12,1.0,0.0,M,0.0,M,,*67
$GPGSA,A,3,01,02,03,04,05,06,07,08,09,10,11,12,1.0,1.0,1.0*30
$GPRMC,182545.921,A,5903.084,N,00556.966,E,019.4,097.5,121217,000.0,W*72
$GPGGA,182546.921,5903.083,N,00556.977,E,1,12,1.0,0.0,M,0.0,M,,*63
$GPGSA,A,3,01,02,03,04,05,06,07,08,09,10,11,12,1.0,1.0,1.0*30
$GPRMC,182546.921,A,5903.083,N,00556.977,E,019.4,097.5,121217,000.0,W*76
$GPGGA,182547.921,5903.082,N,00556.987,E,1,12,1.0,0.0,M,0.0,M,,*6C
$GPGSA,A,3,01,02,03,04,05,06,07,08,09,10,11,12,1.0,1.0,1.0*30
$GPRMC,182547.921,A,5903.082,N,00556.987,E,019.4,097.5,121217,000.0,W*79
$GPGGA,182548.921,5903.080,N,00556.997,E,1,12,1.0,0.0,M,0.0,M,,*60
$GPGSA,A,3,01,02,03,04,05,06,07,08,09,10,11,12,1.0,1.0,1.0*30
$GPRMC,182548.921,A,5903.080,N,00556.997,E,019.4,097.5,121217,000.0,W*75
$GPGGA,182549.921,5903.079,N,00557.007,E,1,12,1.0,0.0,M,0.0,M,,*66
$GPGSA,A,3,01,02,03,04,05,06,07,08,09,10,11,12,1.0,1.0,1.0*30
$GPRMC,182549.921,A,5903.079,N,00557.007,E,019.4,097.5,121217,000.0,W*73
$GPGGA,182550.921,5903.078,N,00557.017,E,1,12,1.0,0.0,M,0.0,M,,*6E
$GPGSA,A,3,01,02,03,04,05,06,07,08,09,10,11,12,1.0,1.0,1.0*30
$GPRMC,182550.921,A,5903.078,N,00557.017,E,019.4,097.5,121217,000.0,W*7B
$GPGGA,182551.921,5903.076,N,00557.027,E,1,12,1.0,0.0,M,0.0,M,,*62
$GPGSA,A,3,01,02,03,04,05,06,07,08,09,10,11,12,1.0,1.0,1.0*30
$GPRMC,182551.921,A,5903.076,N,00557.027,E,019.4,097.5,121217,000.0,W*77
$GPGGA,182552.921,5903.075,N,00557.038,E,1,12,1.0,0.0,M,0.0,M,,*6C
$GPGSA,A,3,01,02,03,04,05,06,07,08,09,10,11,12,1.0,1.0,1.0*30
$GPRMC,182552.921,A,5903.075,N,00557.038,E,019.4,097.5,121217,000.0,W*79
$GPGGA,182553.921,5903.073,N,00557.048,E,1,12,1.0,0.0,M,0.0,M,,*6C
$GPGSA,A,3,01,02,03,04,05,06,07,08,09,10,11,12,1.0,1.0,1.0*30
$GPRMC,182553.921,A,5903.073,N,00557.048,E,019.4,097.5,121217,000.0,W*79
$GPGGA,182554.921,5903.072,N,00557.058,E,1,12,1.0,0.0,M,0.0,M,,*6B
$GPGSA,A,3,01,02,03,04,05,06,07,08,09,10,11,12,1.0,1.0,1.0*30
$GPRMC,182554.921,A,5903.072,N,00557.058,E,019.4,097.5,121217,000.0,W*7E
$GPGGA,182555.921,5903.071,N,00557.068,E,1,12,1.0,0.0,M,0.0,M,,*6A
$GPGSA,A,3,01,02,03,04,05,06,07,08,09,10,11,12,1.0,1.0,1.0*30
$GPRMC,182555.921,A,5903.071,N,00557.068,E,019.4,097.5,121217,000.0,W*7F
$GPGGA,182556.921,5903.069,N,00557.078,E,1,12,1.0,0.0,M,0.0,M,,*61
$GPGSA,A,3,01,02,03,04,05,06,07,08,09,10,11,12,1.0,1.0,1.0*30
$GPRMC,182556.921,A,5903.069,N,00557.078,E,019.4,097.5,121217,000.0,W*74
$GPGGA,182557.921,5903.068,N,00557.088,E,1,12,1.0,0.0,M,0.0,M,,*6E
$GPGSA,A,3,01,02,03,04,05,06,07,08,09,10,11,12,1.0,1.0,1.0*30
$GPRMC,182557.921,A,5903.068,N,00557.088,E,019.4,097.5,121217,000.0,W*7B
$GPGGA,182558.921,5903.067,N,00557.099,E,1,12,1.0,0.0,M,0.0,M,,*6E
$GPGSA,A,3,01,02,03,04,05,06,07,08,09,10,11,12,1.0,1.0,1.0*30
$GPRMC,182558.921,A,5903.067,N,00557.099,E,019.4,097.5,121217,000.0,W*7B
$GPGGA,182559.921,5903.065,N,00557.109,E,1,12,1.0,0.0,M,0.0,M,,*65
$GPGSA,A,3,01,02,03,04,05,06,07,08,09,10,11,12,1.0,1.0,1.0*30
$GPRMC,182559.921,A,5903.065,N,00557.109,E,019.4,097.5,121217,000.0,W*70
$GPGGA,182600.921,5903.064,N,00557.119,E,1,12,1.0,0.0,M,0.0,M,,*6A
$GPGSA,A,3,01,02,03,04,05,06,07,08,09,10,11,12,1.0,1.0,1.0*30
$GPRMC,182600.921,A,5903.064,N,00557.119,E,019.4,097.5,121217,000.0,W*7F
$GPGGA,182601.921,5903.063,N,00557.129,E,1,12,1.0,0.0,M,0.0,M,,*6F
$GPGSA,A,3,01,02,03,04,05,06,07,08,09,10,11,12,1.0,1.0,1.0*30
$GPRMC,182601.921,A,5903.063,N,00557.129,E,019.4,097.5,121217,000.0,W*7A
$GPGGA,182602.921,5903.061,N,00557.139,E,1,12,1.0,0.0,M,0.0,M,,*6F
$GPGSA,A,3,01,02,03,04,05,06,07,08,09,10,11,12,1.0,1.0,1.0*30
$GPRMC,182602.921,A,5903.061,N,00557.139,E,019.4,097.5,121217,000.0,W*7A
$GPGGA,182603.921,5903.060,N,00557.149,E,1,12,1.0,0.0,M,0.0,M,,*68
$GPGSA,A,3,01,02,03,04,05,06,07,08,09,10,11,12,1.0,1.0,1.0*30
$GPRMC,182603.921,A,5903.060,N,00557.149,E,019.4,097.5,121217,000.0,W*7D
$GPGGA,182604.921,5903.059,N,00557.160,E,1,12,1.0,0.0,M,0.0,M,,*6E
$GPGSA,A,3,01,02,03,04,05,06,07,08,09,10,11,12,1.0,1.0,1.0*30
$GPRMC,182604.921,A,5903.059,N,00557.160,E,019.4,097.5,121217,000.0,W*7B
$GPGGA,182605.921,5903.057,N,00557.170,E,1,12,1.0,0.0,M,0.0,M,,*60
$GPGSA,A,3,01,02,03,04,05,06,07,08,09,10,11,12,1.0,1.0,1.0*30
$GPRMC,182605.921,A,5903.057,N,00557.170,E,019.4,097.5,121217,000.0,W*75
$GPGGA,182606.921,5903.056,N,00557.180,E,1,12,1.0,0.0,M,0.0,M,,*6D
$GPGSA,A,3,01,02,03,04,05,06,07,08,09,10,11,12,1.0,1.0,1.0*30
$GPRMC,182606.921,A,5903.056,N,00557.180,E,019.4,097.5,121217,000.0,W*78
$GPGGA,182607.921,5903.055,N,00557.190,E,1,12,1.0,0.0,M,0.0,M,,*6E
$GPGSA,A,3,01,02,03,04,05,06,07,08,09,10,11,12,1.0,1.0,1.0*30
$GPRMC,182607.921,A,5903.055,N,00557.190,E,019.4,097.5,121217,000.0,W*7B
$GPGGA,182608.921,5903.053,N,00557.200,E,1,12,1.0,0.0,M,0.0,M,,*6D
$GPGSA,A,3,01,02,03,04,05,06,07,08,09,10,11,12,1.0,1.0,1.0*30
$GPRMC,182608.921,A,5903.053,N,00557.200,E,019.4,097.5,121217,000.0,W*78
$GPGGA,182609.921,5903.052,N,00557.210,E,1,12,1.0,0.0,M,0.0,M,,*6C
$GPGSA,A,3,01,02,03,04,05,06,07,08,09,10,11,12,1.0,1.0,1.0*30
$GPRMC,182609.921,A,5903.052,N,00557.210,E,019.4,097.5,121217,000.0,W*79
$GPGGA,182610.921,5903.051,N,00557.221,E,1,12,1.0,0.0,M,0.0,M,,*65
$GPGSA,A,3,01,02,03,04,05,06,07,08,09,10,11,12,1.0,1.0,1.0*30
$GPRMC,182610.921,A,5903.051,N,00557.221,E,019.4,097.5,121217,000.0,W*70
$GPGGA,182611.921,5903.049,N,00557.231,E,1,12,1.0,0.0,M,0.0,M,,*6C
$GPGSA,A,3,01,02,03,04,05,06,07,08,09,10,11,12,1.0,1.0,1.0*30
$GPRMC,182611.921,A,5903.049,N,00557.231,E,019.4,097.5,121217,000.0,W*79
$GPGGA,182612.921,5903.048,N,00557.241,E,1,12,1.0,0.0,M,0.0,M,,*69
$GPGSA,A,3,01,02,03,04,05,06,07,08,09,10,11,12,1.0,1.0,1.0*30
$GPRMC,182612.921,A,5903.048,N,00557.241,E,019.4,097.5,121217,000.0,W*7C
$GPGGA,182613.921,5903.047,N,00557.251,E,1,12,1.0,0.0,M,0.0,M,,*66
$GPGSA,A,3,01,02,03,04,05,06,07,08,09,10,11,12,1.0,1.0,1.0*30
$GPRMC,182613.921,A,5903.047,N,00557.251,E,019.4,097.5,121217,000.0,W*73
$GPGGA,182614.921,5903.045,N,00557.261,E,1,12,1.0,0.0,M,0.0,M,,*60
$GPGSA,A,3,01,02,03,04,05,06,07,08,09,10,11,12,1.0,1.0,1.0*30
$GPRMC,182614.921,A,5903.045,N,00557.261,E,019.4,097.5,121217,000.0,W*75
$GPGGA,182615.921,5903.044,N,00557.271,E,1,12,1.0,0.0,M,0.0,M,,*61
$GPGSA,A,3,01,02,03,04,05,06,07,08,09,10,11,12,1.0,1.0,1.0*30
$GPRMC,182615.921,A,5903.044,N,00557.271,E,019.4,097.5,121217,000.0,W*74
$GPGGA,182616.921,5903.043,N,00557.282,E,1,12,1.0,0.0,M,0.0,M,,*69
$GPGSA,A,3,01,02,03,04,05,06,07,08,09,10,11,12,1.0,1.0,1.0*30
$GPRMC,182616.921,A,5903.043,N,00557.282,E,019.4,097.5,121217,000.0,W*7C
$GPGGA,182617.921,5903.041,N,00557.292,E,1,12,1.0,0.0,M,0.0,M,,*6B
$GPGSA,A,3,01,02,03,04,05,06,07,08,09,10,11,12,1.0,1.0,1.0*30
$GPRMC,182617.921,A,5903.041,N,00557.292,E,019.4,097.5,121217,000.0,W*7E
$GPGGA,182618.921,5903.040,N,00557.302,E,1,12,1.0,0.0,M,0.0,M,,*6D
$GPGSA,A,3,01,02,03,04,05,06,07,08,09,10,11,12,1.0,1.0,1.0*30
$GPRMC,182618.921,A,5903.040,N,00557.302,E,019.4,097.5,121217,000.0,W*78
$GPGGA,182619.921,5903.039,N,00557.312,E,1,12,1.0,0.0,M,0.0,M,,*63
$GPGSA,A,3,01,02,03,04,05,06,07,08,09,10,11,12,1.0,1.0,1.0*30
$GPRMC,182619.921,A,5903.039,N,00557.312,E,019.4,097.5,121217,000.0,W*76
$GPGGA,182620.921,5903.037,N,00557.322,E,1,12,1.0,0.0,M,0.0,M,,*64
$GPGSA,A,3,01,02,03,04,05,06,07,08,09,10,11,12,1.0,1.0,1.0*30
$GPRMC,182620.921,A,5903.037,N,00557.322,E,019.4,097.5,121217,000.0,W*71
$GPGGA,182621.921,5903.036,N,00557.332,E,1,12,1.0,0.0,M,0.0,M,,*65
$GPGSA,A,3,01,02,03,04,05,06,07,08,09,10,11,12,1.0,1.0,1.0*30
$GPRMC,182621.921,A,5903.036,N,00557.332,E,019.4,097.5,121217,000.0,W*70
$GPGGA,182622.921,5903.035,N,00557.343,E,1,12,1.0,0.0,M,0.0,M,,*63
$GPGSA,A,3,01,02,03,04,05,06,07,08,09,10,11,12,1.0,1.0,1.0*30
$GPRMC,182622.921,A,5903.035,N,00557.343,E,019.4,097.5,121217,000.0,W*76
$GPGGA,182623.921,5903.033,N,00557.353,E,1,12,1.0,0.0,M,0.0,M,,*65
$GPGSA,A,3,01,02,03,04,05,06,07,08,09,10,11,12,1.0,1.0,1.0*30
$GPRMC,182623.921,A,5903.033,N,00557.353,E,019.4,097.5,121217,000.0,W*70
$GPGGA,182624.921,5903.032,N,00557.363,E,1,12,1.0,0.0,M,0.0,M,,*60
$GPGSA,A,3,01,02,03,04,05,06,07,08,09,10,11,12,1.0,1.0,1.0*30
$GPRMC,182624.921,A,5903.032,N,00557.363,E,019.4,097.5,121217,000.0,W*75
$GPGGA,182625.921,5903.031,N,00557.373,E,1,12,1.0,0.0,M,0.0,M,,*63
$GPGSA,A,3,01,02,03,04,05,06,07,08,09,10,11,12,1.0,1.0,1.0*30
$GPRMC,182625.921,A,5903.031,N,00557.373,E,019.4,097.5,121217,000.0,W*76
$GPGGA,182626.921,5903.029,N,00557.383,E,1,12,1.0,0.0,M,0.0,M,,*66
$GPGSA,A,3,01,02,03,04,05,06,07,08,09,10,11,12,1.0,1.0,1.0*30
$GPRMC,182626.921,A,5903.029,N,00557.383,E,019.4,097.5,121217,000.0,W*73
$GPGGA,182627.921,5903.028,N,00557.393,E,1,12,1.0,0.0,M,0.0,M,,*67
$GPGSA,A,3,01,02,03,04,05,06,07,08,09,10,11,12,1.0,1.0,1.0*30
$GPRMC,182627.921,A,5903.028,N,00557.393,E,019.4,097.5,121217,000.0,W*72
$GPGGA,182628.921,5903.027,N,00557.404,E,1,12,1.0,0.0,M,0.0,M,,*6E
$GPGSA,A,3,01,02,03,04,05,06,07,08,09,10,11,12,1.0,1.0,1.0*30
$GPRMC,182628.921,A,5903.027,N,00557.404,E,019.4,097.5,121217,000.0,W*7B
$GPGGA,182629.921,5903.025,N,00557.414,E,1,12,1.0,0.0,M,0.0,M,,*6C
$GPGSA,A,3,01,02,03,04,05,06,07,08,09,10,11,12,1.0,1.0,1.0*30
$GPRMC,182629.921,A,5903.025,N,00557.414,E,019.4,097.5,121217,000.0,W*79
$GPGGA,182630.921,5903.024,N,00557.424,E,1,12,1.0,0.0,M,0.0,M,,*66
$GPGSA,A,3,01,02,03,04,05,06,07,08,09,10,11,12,1.0,1.0,1.0*30
$GPRMC,182630.921,A,5903.024,N,00557.424,E,019.4,097.5,121217,000.0,W*73
$GPGGA,182631.921,5903.023,N,00557.434,E,1,12,1.0,0.0,M,0.0,M,,*61
$GPGSA,A,3,01,02,03,04,05,06,07,08,09,10,11,12,1.0,1.0,1.0*30
$GPRMC,182631.921,A,5903.023,N,00557.434,E,019.4,097.5,121217,000.0,W*74
$GPGGA,182632.921,5903.021,N,00557.444,E,1,12,1.0,0.0,M,0.0,M,,*67
$GPGSA,A,3,01,02,03,04,05,06,07,08,09,10,11,12,1.0,1.0,1.0*30
$GPRMC,182632.921,A,5903.021,N,00557.444,E,019.4,097.5,121217,000.0,W*72
$GPGGA,182633.921,5903.020,N,00557.454,E,1,12,1.0,0.0,M,0.0,M,,*66
$GPGSA,A,3,01,02,03,04,05,06,07,08,09,10,11,12,1.0,1.0,1.0*30
$GPRMC,182633.921,A,5903.020,N,00557.454,E,019.4,097.5,121217,000.0,W*73
$GPGGA,182634.921,5903.019,N,00557.464,E,1,12,1.0,0.0,M,0.0,M,,*68
$GPGSA,A,3,01,02,03,04,05,06,07,08,09,10,11,12,1.0,1.0,1.0*30
$GPRMC,182634.921,A,5903.019,N,00557.464,E,019.4,097.5,121217,000.0,W*7D
$GPGGA,182635.921,5903.017,N,00557.475,E,1,12,1.0,0.0,M,0.0,M,,*67
$GPGSA,A,3,01,02,03,04,05,06,07,08,09,10,11,12,1.0,1.0,1.0*30
$GPRMC,182635.921,A,5903.017,N,00557.475,E,019.4,097.5,121217,000.0,W*72
$GPGGA,182636.921,5903.016,N,00557.485,E,1,12,1.0,0.0,M,0.0,M,,*6A
$GPGSA,A,3,01,02,03,04,05,06,07,08,09,10,11,12,1.0,1.0,1.0*30
$GPRMC,182636.921,A,5903.016,N,00557.485,E,019.4,097.5,121217,000.0,W*7F
$GPGGA,182637.921,5903.015,N,00557.495,E,1,12,1.0,0.0,M,0.0,M,,*69
$GPGSA,A,3,01,02,03,04,05,06,07,08,09,10,11,12,1.0,1.0,1.0*30
$GPRMC,182637.921,A,5903.015,N,00557.495,E,019.4,097.5,121217,000.0,W*7C
$GPGGA,182638.921,5903.013,N,00557.505,E,1,12,1.0,0.0,M,0.0,M,,*68
$GPGSA,A,3,01,02,03,04,05,06,07,08,09,10,11,12,1.0,1.0,1.0*30
$GPRMC,182638.921,A,5903.013,N,00557.505,E,019.4,097.5,121217,000.0,W*7D
$GPGGA,182639.921,5903.012,N,00557.515,E,1,12,1.0,0.0,M,0.0,M,,*69
$GPGSA,A,3,01,02,03,04,05,06,07,08,09,10,11,12,1.0,1.0,1.0*30
$GPRMC,182639.921,A,5903.012,N,00557.515,E,019.4,097.5,121217,000.0,W*7C
$GPGGA,182640.921,5903.011,N,00557.525,E,1,12,1.0,0.0,M,0.0,M,,*67
$GPGSA,A,3,01,02,03,04,05,06,07,08,09,10,11,12,1.0,1.0,1.0*30
$GPRMC,182640.921,A,5903.011,N,00557.525,E,019.4,097.5,121217,000.0,W*72
$GPGGA,182641.921,5903.009,N,00557.536,E,1,12,1.0,0.0,M,0.0,M,,*6D
$GPGSA,A,3,01,02,03,04,05,06,07,08,09,10,11,12,1.0,1.0,1.0*30
$GPRMC,182641.921,A,5903.009,N,00557.536,E,019.4,097.5,121217,000.0,W*78
$GPGGA,182642.921,5903.008,N,00557.546,E,1,12,1.0,0.0,M,0.0,M,,*68
$GPGSA,A,3,01,02,03,04,05,06,07,08,09,10,11,12,1.0,1.0,1.0*30
$GPRMC,182642.921,A,5903.008,N,00557.546,E,019.4,097.5,121217,000.0,W*7D
$GPGGA,182643.921,5903.007,N,00557.556,E,1,12,1.0,0.0,M,0.0,M,,*67
$GPGSA,A,3,01,02,03,04,05,06,07,08,09,10,11,12,1.0,1.0,1.0*30
$GPRMC,182643.921,A,5903.007,N,00557.556,E,019.4,097.5,121217,000.0,W*72
$GPGGA,182644.921,5903.005,N,00557.566,E,1,12,1.0,0.0,M,0.0,M,,*61
$GPGSA,A,3,01,02,03,04,05,06,07,08,09,10,11,12,1.0,1.0,1.0*30
$GPRMC,182644.921,A,5903.005,N,00557.566,E,019.4,097.5,121217,000.0,W*74
$GPGGA,182645.921,5903.004,N,00557.576,E,1,12,1.0,0.0,M,0.0,M,,*60
$GPGSA,A,3,01,02,03,04,05,06,07,08,09,10,11,12,1.0,1.0,1.0*30
$GPRMC,182645.921,A,5903.004,N,00557.576,E,019.4,097.5,121217,000.0,W*75
$GPGGA,182646.921,5903.003,N,00557.586,E,1,12,1.0,0.0,M,0.0,M,,*6B
$GPGSA,A,3,01,02,03,04,05,06,07,08,09,10,11,12,1.0,1.0,1.0*30
$GPRMC,182646.921,A,5903.003,N,00557.586,E,019.4,097.5,121217,000.0,W*7E
$GPGGA,182647.921,5903.001,N,00557.597,E,1,12,1.0,0.0,M,0.0,M,,*68
$GPGSA,A,3,01,02,03,04,05,06,07,08,09,10,11,12,1.0,1.0,1.0*30
$GPRMC,182647.921,A,5903.001,N,00557.597,E,019.4,097.5,121217,000.0,W*7D
$GPGGA,182648.921,5903.000,N,00557.607,E,1,12,1.0,0.0,M,0.0,M,,*6C
$GPGSA,A,3,01,02,03,04,05,06,07,08,09,10,11,12,1.0,1.0,1.0*30
$GPRMC,182648.921,A,5903.000,N,00557.607,E,019.4,097.5,121217,000.0,W*79
$GPGGA,182649.921,5902.999,N,00557.617,E,1,12,1.0,0.0,M,0.0,M,,*64
$GPGSA,A,3,01,02,03,04,05,06,07,08,09,10,11,12,1.0,1.0,1.0*30
$GPRMC,182649.921,A,5902.999,N,00557.617,E,019.4,097.5,121217,000.0,W*71
$GPGGA,182650.921,5902.997,N,00557.627,E,1,12,1.0,0.0,M,0.0,M,,*61
$GPGSA,A,3,01,02,03,04,05,06,07,08,09,10,11,12,1.0,1.0,1.0*30
$GPRMC,182650.921,A,5902.997,N,00557.627,E,019.4,097.5,121217,000.0,W*74
$GPGGA,182651.921,5902.996,N,00557.637,E,1,12,1.0,0.0,M,0.0,M,,*60
$GPGSA,A,3,01,02,03,04,05,06,07,08,09,10,11,12,1.0,1.0,1.0*30
$GPRMC,182651.921,A,5902.996,N,00557.637,E,019.4,097.5,121217,000.0,W*75
$GPGGA,182652.921,5902.995,N,00557.647,E,1,12,1.0,0.0,M,0.0,M,,*67
$GPGSA,A,3,01,02,03,04,05,06,07,08,09,10,11,12,1.0,1.0,1.0*30
$GPRMC,182652.921,A,5902.995,N,00557.647,E,019.4,097.5,121217,000.0,W*72
$GPGGA,182653.921,5902.993,N,00557.658,E,1,12,1.0,0.0,M,0.0,M,,*6E
$GPGSA,A,3,01,02,03,04,05,06,07,08,09,10,11,12,1.0,1.0,1.0*30
$GPRMC,182653.921,A,5902.993,N,00557.658,E,019.4,097.5,121217,000.0,W*7B
$GPGGA,182654.921,5902.992,N,00557.668,E,1,12,1.0,0.0,M,0.0,M,,*6B
$GPGSA,A,3,01,02,03,04,05,06,07,08,09,10,11,12,1.0,1.0,1.0*30
$GPRMC,182654.921,A,5902.992,N,00557.668,E,019.4,097.5,121217,000.0,W*7E
$GPGGA,182655.921,5902.991,N,00557.678,E,1,12,1.0,0.0,M,0.0,M,,*68
$GPGSA,A,3,01,02,03,04,05,06,07,08,09,10,11,12,1.0,1.0,1.0*30
$GPRMC,182655.921,A,5902.991,N,00557.678,E,019.4,097.5,121217,000.0,W*7D
$GPGGA,182656.921,5902.989,N,00557.688,E,1,12,1.0,0.0,M,0.0,M,,*6D
$GPGSA,A,3,01,02,03,04,05,06,07,08,09,10,11,12,1.0,1.0,1.0*30
$GPRMC,182656.921,A,5902.989,N,00557.688,E,019.4,097.5,121217,000.0,W*78
$GPGGA,182657.921,5902.988,N,00557.698,E,1,12,1.0,0.0,M,0.0,M,,*6C
$GPGSA,A,3,01,02,03,04,05,06,07,08,09,10,11,12,1.0,1.0,1.0*30
$GPRMC,182657.921,A,5902.988,N,00557.698,E,019.4,097.5,121217,000.0,W*79
$GPGGA,182658.921,5902.987,N,00557.708,E,1,12,1.0,0.0,M,0.0,M,,*64
$GPGSA,A,3,01,02,03,04,05,06,07,08,09,10,11,12,1.0,1.0,1.0*30
$GPRMC,182658.921,A,5902.987,N,00557.708,E,019.4,097.5,121217,000.0,W*71
$GPGGA,182659.921,5902.985,N,00557.719,E,1,12,1.0,0.0,M,0.0,M,,*67
$GPGSA,A,3,01,02,03,04,05,06,07,08,09,10,11,12,1.0,1.0,1.0*30
$GPRMC,182659.921,A,5902.985,N,00557.719,E,019.4,097.5,121217,000.0,W*72
$GPGGA,182700.921,5902.984,N,00557.729,E,1,12,1.0,0.0,M,0.0,M,,*68
$GPGSA,A,3,01,02,03,04,05,06,07,08,09,10,11,12,1.0,1.0,1.0*30
$GPRMC,182700.921,A,5902.984,N,00557.729,E,019.4,097.5,121217,000.0,W*7D
$GPGGA,182701.921,5902.983,N,00557.739,E,1,12,1.0,0.0,M,0.0,M,,*6F
$GPGSA,A,3,01,02,03,04,05,06,07,08,09,10,11,12,1.0,1.0,1.0*30
$GPRMC,182701.921,A,5902.983,N,00557.739,E,019.4,097.5,121217,000.0,W*7A
$GPGGA,182702.921,5902.981,N,00557.749,E,1,12,1.0,0.0,M,0.0,M,,*69
$GPGSA,A,3,01,02,03,04,05,06,07,08,09,10,11,12,1.0,1.0,1.0*30
$GPRMC,182702.921,A,5902.981,N,00557.749,E,019.4,097.5,121217,000.0,W*7C
$GPGGA,182703.921,5902.980,N,00557.759,E,1,12,1.0,0.0,M,0.0,M,,*68
$GPGSA,A,3,01,02,03,04,05,06,07,08,09,10,11,12,1.0,1.0,1.0*30
$GPRMC,182703.921,A,5902.980,N,00557.759,E,019.4,097.5,121217,000.0,W*7D
$GPGGA,182704.921,5902.978,N,00557.769,E,1,12,1.0,0.0,M,0.0,M,,*6B
$GPGSA,A,3,01,02,03,04,05,06,07,08,09,10,11,12,1.0,1.0,1.0*30
$GPRMC,182704.921,A,5902.978,N,00557.769,E,019.4,097.5,121217,000.0,W*7E
$GPGGA,182705.921,5902.977,N,00557.780,E,1,12,1.0,0.0,M,0.0,M,,*62
$GPGSA,A,3,01,02,03,04,05,06,07,08,09,10,11,12,1.0,1.0,1.0*30
$GPRMC,182705.921,A,5902.977,N,00557.780,E,019.4,097.5,121217,000.0,W*77
$GPGGA,182706.921,5902.976,N,00557.790,E,1,12,1.0,0.0,M,0.0,M,,*61
$GPGSA,A,3,01,02,03,04,05,06,07,08,09,10,11,12,1.0,1.0,1.0*30
$GPRMC,182706.921,A,5902.976,N,00557.790,E,019.4,097.5,121217,000.0,W*74
$GPGGA,182707.921,5902.974,N,00557.800,E,1,12,1.0,0.0,M,0.0,M,,*64
$GPGSA,A,3,01,02,03,04,05,06,07,08,09,10,11,12,1.0,1.0,1.0*30
$GPRMC,182707.921,A,5902.974,N,00557.800,E,019.4,097.5,121217,000.0,W*71
$GPGGA,182708.921,5902.973,N,00557.810,E,1,12,1.0,0.0,M,0.0,M,,*6D
$GPGSA,A,3,01,02,03,04,05,06,07,08,09,10,11,12,1.0,1.0,1.0*30
$GPRMC,182708.921,A,5902.973,N,00557.810,E,019.4,097.5,121217,000.0,W*78
$GPGGA,182709.921,5902.972,N,00557.820,E,1,12,1.0,0.0,M,0.0,M,,*6E
$GPGSA,A,3,01,02,03,04,05,06,07,08,09,10,11,12,1.0,1.0,1.0*30
$GPRMC,182709.921,A,5902.972,N,00557.820,E,019.4,097.5,121217,000.0,W*7B
$GPGGA,182710.921,5902.970,N,00557.830,E,1,12,1.0,0.0,M,0.0,M,,*65
$GPGSA,A,3,01,02,03,04,05,06,07,08,09,10,11,12,1.0,1.0,1.0*30
$GPRMC,182710.921,A,5902.970,N,00557.830,E,019.4,097.5,121217,000.0,W*70
$GPGGA,182711.921,5902.969,N,00557.841,E,1,12,1.0,0.0,M,0.0,M,,*6A
$GPGSA,A,3,01,02,03,04,05,06,07,08,09,10,11,12,1.0,1.0,1.0*30
$GPRMC,182711.921,A,5902.969,N,00557.841,E,019.4,097.5,121217,000.0,W*7F
$GPGGA,182712.921,5902.968,N,00557.851,E,1,12,1.0,0.0,M,0.0,M,,*69
$GPGSA,A,3,01,02,03,04,05,06,07,08,09,10,11,12,1.0,1.0,1.0*30
$GPRMC,182712.921,A,5902.968,N,00557.851,E,019.4,097.5,121217,000.0,W*7C
$GPGGA,182713.921,5902.966,N,00557.861,E,1,12,1.0,0.0,M,0.0,M,,*65
$GPGSA,A,3,01,02,03,04,05,06,07,08,09,10,11,12,1.0,1.0,1.0*30
$GPRMC,182713.921,A,5902.966,N,00557.861,E,019.4,097.5,121217,000.0,W*70
